District,School Site,Co/Dist Code,Site Code,Enrollment,Certified Staff,Grades  (Low-High),Telephone,Mailing Address,City,State,Zip,County,Principal,Principal Email,latitude,longitude
ABLE CHARTER ABLE LEARNING,ABLE CHARTER SCHOOL 6TH-8TH,55-Z005,971,11,5,06-08,(405) 990-2282,"4500 N. Classen Blvd., Suite 205",Oklahoma City,OK,73118,OKLAHOMA,Tina Barker,tina.barker@ablecharterschool.com,35.523213,-97.535259
ABLE CHARTER ABLE LEARNING,ABLE CHARTER SCHOOL 9TH-12TH,55-Z005,972,44,5,09-12,(405) 990-2282,"4500 N. Classen Blvd., Suite 205",Oklahoma City,OK,73118,OKLAHOMA,Judith Kuczynski,judy@christinainternationalhs.com,35.523213,-97.535259
ADA,ADA EC CTR,62-I019,105,420,36,PK-KG,(580) 310-7283,603 West 33rd St,Ada,OK,74820,PONTOTOC,Rita Cloar,cloarr@adapss.com,35.623151,-97.483001
ADA,HAYES ES,62-I019,110,475,36,01-02,(580) 310-7294,500 South Mississippi Ave,Ada,OK,74820,PONTOTOC,Diana Clampitt,clampittd@adapss.com,34.77325,-96.678337
ADA,WASHINGTON ES,62-I019,125,386,35,03-04,(580) 310-7303,600 South Oak Ave,Ada,OK,74820,PONTOTOC,Pam Martin,martinp@adapss.com,34.77325,-96.678337
ADA,WILLARD ES,62-I019,130,342,41,05-06,(580) 310-7250,817 East Ninth St,Ada,OK,74820,PONTOTOC,Kevin Mann,mannk@adapss.com,34.772999,-96.675998
ADA,ADA JHS,62-I019,610,532,66,07-09,(580) 310-7260,223 West 18th St,Ada,OK,74820,PONTOTOC,Bryan Harwell,harwellb@adapss.com,34.772999,-96.675998
ADA,ADA HS,62-I019,705,533,71,10-12,(580) 310-7220,1400 Stadium Drive,Ada,OK,74820,PONTOTOC,Charles Golightly,golightlyc@adapss.com,35.511875,-97.486432
ALLEN-BOWDEN,ALLEN-BOWDEN PUBLIC SCHOOL,19-C035,105,403,28,PK-08,(918) 224-4440,7049 Frankoma Road,Tulsa,OK,74131,CREEK,Dawna Watkins,d-watkins@allenbowden.k12.ok.us,35.396632,-97.513299
ALTUS,RIVERS ES,33-I018,105,318,24,PK-04,(580) 481-2183,3000 North Veterans Drive,Altus,OK,73522,JACKSON,Robbie Holder,rholder@altusps.com,35.498893,-97.595249
ALTUS,ROOSEVELT ES,33-I018,120,290,25,PK-04,(580) 481-2185,1200 Glenda St,Altus,OK,73521,JACKSON,Cheryl Anderson,canderson@altusps.com,35.38587,-97.537647
ALTUS,SUNSET ES,33-I018,125,518,33,PK-04,(580) 481-2180,1830 Sunset Drive,Altus,OK,73521,JACKSON,Todd Ware,tware@altusps.com,35.519308,-97.500459
ALTUS,WASHINGTON ES,33-I018,130,329,22,PK-04,(580) 481-2133,311 East Cypress St,Altus,OK,73521,JACKSON,Renee Long,rlong@altusps.com,35.484837,-97.506805
ALTUS,WILL ROGERS ES,33-I018,135,249,21,PK-04,(580) 481-2151,1100 North Forrest St,Altus,OK,73521,JACKSON,Rita Beisel,tbeisel@altusps.com,34.666447,-99.333561
ALTUS,ALTUS INTERMEDIATE SCHOOL,33-I018,145,445,41,05-06,(580) 481-2155,1221 North Howse St,Altus,OK,73521,JACKSON,Jay Richeson,jricheson@altusps.com,34.666447,-99.333561
ALTUS,ALTUS JHS,33-I018,625,493,45,07-08,(580) 481-2173,1600 South Park Lane,Altus,OK,73521,JACKSON,Roe Worbes,rworbes@altusps.com,33.22664,-97.113153
ALTUS,ALTUS HS,33-I018,705,905,80,09-12,(580) 481-2167,400 North Park Ave,Altus,OK,73521,JACKSON,Mark Haught,mhaught@altusps.com,34.666447,-99.333561
ALVA,LINCOLN ES,76-I001,105,114,15,04-05,(580) 327-3008,1540 Davis St,Alva,OK,73717,WOODS,Tim Argo,tbargo@alvaschools.net,36.791048,-98.667304
ALVA,LONGFELLOW ES,76-I001,110,,18,-,(580) 327-3327,19 Barnes Ave,Alva,OK,73717,WOODS,Steve Shiever,ssshiever@alvaschools.net,36.803206,-98.657999
ALVA,WASHINGTON ES,76-I001,115,258,21,PK-01,(580) 327-3518,701 Barnes Ave,Alva,OK,73717,WOODS,Alysson Tucker,amtucker@alvaschools.net,36.803259,-98.669169
ALVA,ALVA MS,76-I001,505,,27,-,(580) 327-0608,800 Flynn St,Alva,OK,73717,WOODS,Ron Sunderland,rdsunderland@alvaschools.net,36.805435,-98.670786
ALVA,ALVA HS,76-I001,705,,34,-,(580) 327-3682,501 14th St,Alva,OK,73717,WOODS,Lesley Potter,ldpotter@alvaschools.net,36.803605,-98.681658
ANADARKO,ANADARKO EAST ES,08-I020,105,290,24,02-03,(405) 247-2496,107 Southeast Fifth St,Anadarko,OK,73005,CADDO,Danny Harris,dharris@apswarriors.com,35.430592,-97.509843
ANADARKO,SUNSET ES,08-I020,115,316,25,KG-01,(405) 247-2503,508 Southwest Seventh St,Anadarko,OK,73005,CADDO,Lyn Grubb,lgrubb@apswarriors.com,35.429999,-97.521942
ANADARKO,MISSION ES,08-I020,120,394,30,PK-05,(405) 247-6607,1200 South Mission St,Anadarko,OK,73005,CADDO,Jeff Barrett,jbarrett@apswarriors.com,35.437109,-97.537019
ANADARKO,ANADARKO MS,08-I020,510,411,55,06-08,(405) 247-6671,900 West College St,Anadarko,OK,73005,CADDO,Doug Hall,dhall@apswarriors.com,35.559293,-97.53277
ANADARKO,ANADARKO HS,08-I020,705,471,60,09-12,(405) 247-2486,1400 Warrior Drive,Anadarko,OK,73005,CADDO,Mike Sparks,msparks@apswarriors.com,35.4829,-97.453137
ANDERSON,ANDERSON PUBLIC SCHOOL,57-C052,105,282,21,PK-06,(918) 245-0289,2195 Anderson Road,Sand Springs,OK,74063,OSAGE,Brett Banker,bbanker@andersontrojans.org,36.134405,-96.098268
ANTLERS,BRANTLY ES,64-I013,105,530,37,PK-05,(580) 298-3108,219 Ne A St,Antlers,OK,74523,PUSHMATAHA,Pamela Matthews,pmatthews@antlers.k12.ok.us,35.444102,-97.507754
ANTLERS,OBUCH MS,64-I013,510,225,26,06-08,(580) 298-3308,219 Ne A St,Antlers,OK,74523,PUSHMATAHA,William Neyman,wneyman@antlers.k12.ok.us,35.444102,-97.507754
ANTLERS,ANTLERS HS,64-I013,705,269,33,09-12,(580) 298-2141,219 Ne A St,Antlers,OK,74523,PUSHMATAHA,Bryan Mcnutt,bmcnutt@antlers.k12.ok.us,35.444102,-97.507754
ASTEC CHARTERS,ASTEC CHARTER MS,55-G004,971,460,43,06-08,(405) 947-6273,"2401 Nw 23rd St, Ste. 3",Oklahoma City,OK,73107,OKLAHOMA,Amanda James,ajames@asteccharterschools.com,35.493708,-97.599237
ASTEC CHARTERS,ASTEC CHARTER HS,55-G004,972,467,37,09-12,(405) 947-6274,"2401 Nw 23rd St, Ste. 3",Oklahoma City,OK,73107,OKLAHOMA,Amanda James,ajames@asteccharterschools.com,35.493708,-97.599237
BALKO,BALKO ES,04-I075,105,118,23,PK-08,(580) 646-3385,"Rural Route 1, Box 37",Balko,OK,73931,BEAVER,Tammie Heathman,theathman@balko.k12.ok.us,35.46454,-97.565142
BALKO,BALKO HS,04-I075,705,44,14,09-12,(580) 646-3385,"Rural Route 1, Box 37",Balko,OK,73931,BEAVER,Tammie Heathman,theathman@balko.k12.ok.us,35.46454,-97.565142
BANNER,BANNER PUBLIC SCHOOL,09-C031,105,204,14,PK-08,(405) 262-0598,2455 North Banner Road,El Reno,OK,73036,CANADIAN,Larry York,ljyork68@banner.k12.ok.us,35.511445,-97.975945
BARTLESVILLE,RICHARD KANE ES,74-I030,110,551,46,PK-05,(918) 337-3711,801 East 13th St,Bartlesville,OK,74003,WASHINGTON,Shelly White,whitesr@bps-ok.org,36.753304,-95.975088
BARTLESVILLE,HOOVER ES,74-I030,120,461,36,PK-05,(918) 333-9337,512 Southeast Madison,Bartlesville,OK,74006,WASHINGTON,Susan Burns,burnssr@bps-ok.org,36.77542,-95.936047
BARTLESVILLE,JANE PHILLIPS ES,74-I030,130,332,48,PK-05,(918) 336-9479,1500 South Rogers Ave,Bartlesville,OK,74003,WASHINGTON,David Mueller,muellerdd@bps-ok.org,36.752486,-95.978667
BARTLESVILLE,RANCH HEIGHTS ES,74-I030,160,561,42,PK-05,(918) 333-3810,5100 David Lane,Bartlesville,OK,74005,WASHINGTON,Kevin Brown,brownkd@bps-ok.org,35.358544,-97.226493
BARTLESVILLE,WAYSIDE ES,74-I030,175,603,41,PK-05,(918) 333-8000,3000 Wayside Drive,Bartlesville,OK,74006,WASHINGTON,Kenneth Copeland,copelandkg@bps-ok.org,36.717425,-95.934305
BARTLESVILLE,WOODROW WILSON ES,74-I030,185,569,45,PK-05,(918) 335-1177,245 Northeast Spruce,Bartlesville,OK,74006,WASHINGTON,Tammie Krause,krausetj@bps-ok.org,36.77542,-95.936047
BARTLESVILLE,CENTRAL MS,74-I030,505,605,61,06-08,(918) 336-9302,408 Southeast Ninth,Bartlesville,OK,74005,WASHINGTON,Ryan Huff,huffrl@bps-ok.org,36.752697,-95.938603
BARTLESVILLE,MADISON MS,74-I030,510,655,56,06-08,(918) 333-3176,500 Southeast Madison Blvd,Bartlesville,OK,74006,WASHINGTON,Joseph Eidson,eidsonje@bps-ok.org,36.755336,-95.915597
BARTLESVILLE,BARTLESVILLE HS,74-I030,705,1762,129,09-12,(918) 336-3311,1700 Hillcrest Drive,Bartlesville,OK,74003,WASHINGTON,Ladonna Chancellor,chancellorlm@bps-ok.org,36.750751,-95.979359
BEARDEN,BEARDEN PUBLIC SCHOOL,54-C029,105,95,9,PK-08,(918) 623-0156,372006 Hwy 48,Okemah,OK,74859,OKFUSKEE,Danielle Deere,ddeere@bearden.k12.ok.us,35.482017,-97.496269
BEGGS,BEGGS ES,56-I004,105,434,40,PK-04,(918) 267-3631,1201 West Ninth St,Beggs,OK,74421,OKMULGEE,Nancy Mccune,nmcune@beggs.k12.ok.us,35.748522,-96.083741
BEGGS,BEGGS MS,56-I004,505,345,35,05-08,(918) 267-4916,1201 West Ninth St,Beggs,OK,74421,OKMULGEE,Kenny Hurst,khurst@beggs.k12.ok.us,35.748522,-96.083741
BEGGS,BEGGS HS,56-I004,705,351,38,09-12,(918) 267-3625,1201 West Ninth St,Beggs,OK,74421,OKMULGEE,Kristi Smith,ksmith@beggs.k12.ok.us,35.748522,-96.083741
BELFONTE,BELFONTE PUBLIC SCHOOL,68-C050,105,99,11,PK-08,(918) 427-3522,475751 State Highway 101,Muldrow,OK,74948,SEQUOYAH,Paul Pinkerton,ppinkerton@belfonte.k12.ok.us,33.0097,-96.541676
BELFONTE,BELFONTE BELL ES (ADAIR CNTY),68-C050,110,108,9,PK-08,(918) 696-7181,Rt. 5 Box 4470,Stilwell,OK,74960,SEQUOYAH,Tony Davidson,tdavidson@belfonte.k12.ok.us,35.52463,-97.351228
BENNINGTON,BENNINGTON ES,07-I040,105,219,24,PK-08,(580) 847-2310,729 North Perry St,Bennington,OK,74723,BRYAN,Scot Mccorstin,smccorstin@benningtonisd.org,35.48772,-97.499489
BENNINGTON,BENNINGTON HS,07-I040,705,79,16,09-12,(580) 847-2310,729 North Perry St,Bennington,OK,74723,BRYAN,Jon Shepard,jshepard@benningtonisd.org,35.48772,-97.499489
BERRYHILL,BERRYHILL ES SOUTH,72-I010,105,643,43,PK-06,(918) 445-6041,3128 South 63rd West Ave,Tulsa,OK,74107,TULSA,Kye Payne,kye.payne@berryhillschools.org,36.103876,-96.001063
BERRYHILL,BERRYHILL MS,72-I010,510,191,33,07-08,(918) 445-6039,3128 South 63rd West Ave,Tulsa,OK,74107,TULSA,Ronna Taylor,ronna.taylor@berryhillschools.org,36.103876,-96.001063
BERRYHILL,BERRYHILL HS,72-I010,705,422,46,09-12,(918) 445-6035,3128 South 63rd West Ave,Tulsa,OK,74107,TULSA,Donnie Bridgeman,donnie.bridgeman@berryhillschools.org,36.103876,-96.001063
BETHANY,EARL HARRIS ES,55-I088,105,756,57,PK-05,(405) 789-6673,6721 Nw 42Nd St,Bethany,OK,73008,OKLAHOMA,Reuben Bellows,rbellows@bps.k12.ok.us,35.510951,-97.626149
BETHANY,CHILDREN'S CTR,55-I088,110,62,8,PK-08,(405) 499-4611,6721 Northwest 42Nd St,Bethany,OK,73008,OKLAHOMA,Tim Haws,thaws@bps.k12.ok.us,35.513395,-97.512666
BETHANY,BETHANY MS,55-I088,505,385,39,06-08,(405) 787-3240,6721 Nw 42Nd St,Bethany,OK,73008,OKLAHOMA,Matthew Flinton,mflinton@bps.k12.ok.us,35.510951,-97.626149
BETHANY,BETHANY HS,55-I088,705,515,52,09-12,(405) 789-6370,6721 Nw 42Nd St,Bethany,OK,73008,OKLAHOMA,Don Wentroth,dwentroth@bps.k12.ok.us,35.510951,-97.626149
BETHEL,BETHEL ES,63-I003,105,636,42,PK-05,(405) 273-7632,36000 Clearpond Road,Shawnee,OK,74801,POTTAWATOMIE,Tammy Cook,cookt@bethel.k12.ok.us,35.429203,-97.581039
BETHEL,BETHEL MS,63-I003,505,284,30,06-08,(405) 273-5944,36000 Clearpond Road,Shawnee,OK,74801,POTTAWATOMIE,Tina Moon,moont@bethel.k12.ok.us,35.429203,-97.581039
BETHEL,BETHEL HS,63-I003,705,425,39,09-12,(405) 273-3633,36000 Clearpond Road,Shawnee,OK,74801,POTTAWATOMIE,Jeremy Stewart,stewartj@bethel.k12.ok.us,35.429203,-97.581039
BILLINGS,BILLINGS ES,52-I002,105,55,12,PK-08,(580) 725-3479,311 North Central,Billings,OK,74630,NOBLE,Rustin Clark,rclark@billings.k12.ok.us,35.479705,-97.507538
BILLINGS,BILLINGS HS,52-I002,705,28,9,09-12,(580) 725-3271,311 North Central,Billings,OK,74630,NOBLE,Rustin Clark,rclark@billings.k12.ok.us,35.479705,-97.507538
BISHOP,BISHOP PUBLIC SCHOOL,16-C049,105,536,30,PK-06,(580) 353-4870,2204 Southwest Bishop Road,Lawton,OK,73505,COMANCHE,Howard Hampton,hamptonh@bishop.k12.ok.us,34.607945,-98.422714
BIXBY,CENTRAL ES,72-I004,110,889,56,PK-03,(918) 366-2282,201 South Main St,Bixby,OK,74008,TULSA,Lydia Wilson,lwilson@bixbyps.org,35.940609,-95.884072
BIXBY,BIXBY NORTH ES,72-I004,120,817,53,PK-03,(918) 366-2690,7101 East 121st St,Bixby,OK,74008,TULSA,Phil Streets,pstreets@bixbyps.org,35.986537,-95.864561
BIXBY,NORTH INTERMEDIATE SCHOOL,72-I004,130,556,45,04-06,(918) 366-2669,6941 East 121st St South,Bixby,OK,74008,TULSA,Dawn Nipps,dnipps@bixbyps.org,35.986537,-95.864561
BIXBY,CENTRAL INTERMEDIATE SCHOOL,72-I004,140,555,46,04-06,(918) 366-2248,9401 E. 161st St.,Bixby,OK,74008,TULSA,Brenda Shaw,bshaw@bixbyps.org,35.963498,-95.872447
BIXBY,NORTHEAST ES AND IS,72-I004,150,653,46,PK-06,(918) 366-1714,11901 E. 131st St.,Broken Arrow,OK,74011,TULSA,Jamie Milligan,jmilligan@bixbyps.org,35.591171,-97.66932
BIXBY,BIXBY MS,72-I004,505,869,69,07-08,(918) 366-2201,9401 East 161st St,Bixby,OK,74008,TULSA,Mike Lemon,mlemon@bixbyps.org,35.963498,-95.872447
BIXBY,BIXBY HS,72-I004,705,1707,126,09-12,(918) 366-2234,601 South Riverview,Bixby,OK,74008,TULSA,Terry Adams,tadams@bixbyps.org,35.941299,-95.88282
BLACKWELL,BLACKWELL ES,36-I045,125,662,46,PK-05,(580) 363-0118,2105 West Ferguson Ave,Blackwell,OK,74631,KAY,Mellisa Moore,mmoore@blackwell.k12.ok.us,35.507048,-97.548029
BLACKWELL,BLACKWELL MS,36-I045,505,,33,-,(580) 363-2100,1041 South First St,Blackwell,OK,74631,KAY,Preston Kysar,pkysar@blackwell.k12.ok.us,36.792892,-97.257655
BLACKWELL,BLACKWELL HS,36-I045,705,416,35,09-12,(580) 363-3553,303 East Coolidge Ave,Blackwell,OK,74631,KAY,Jaylene Soulek,jsoulek@blackwell.k12.ok.us,35.485762,-97.507143
BLANCHARD,BLANCHARD ES,47-I029,105,536,39,PK-02,(405) 485-3394,211 North Tyler Ave,Blanchard,OK,73010,MCCLAIN,Donna Edge,dedge@blanchard.k12.ok.us,35.50989,-97.507187
BLANCHARD,BLANCHARD INTERMEDIATE ES,47-I029,110,436,31,03-05,(405) 485-3391,211 North Tyler Ave,Blanchard,OK,73010,MCCLAIN,Paula Floyd,pfloyd@blanchard.k12.ok.us,35.50989,-97.507187
BLANCHARD,BLANCHARD MS,47-I029,510,420,34,06-08,(405) 485-3393,211 North Tyler Ave,Blanchard,OK,73010,MCCLAIN,Larry Mcvay,lmcvay@blanchard.k12.ok.us,35.50989,-97.507187
BLANCHARD,BLANCHARD HS,47-I029,705,550,47,09-12,(405) 485-3392,211 North Tyler Ave,Blanchard,OK,73010,MCCLAIN,Greg Jackson,gjackson@blanchard.k12.ok.us,35.50989,-97.507187
BOWRING,BOWRING PUBLIC SCHOOL,57-C007,105,78,8,PK-08,(918) 336-6892,87 County Road 3304,Pawhuska,OK,74056,OSAGE,Nicole Hinkle,nhinkle@bowringps.k12.ok.us,36.665307,-96.338871
BRAY-DOYLE,BRAY-DOYLE ES,69-I042,105,,30,-,(580) 658-5070,1205 South Brooks Road,Marlow,OK,73055,STEPHENS,Guy Heldermon,gheldermon@braydoyle.k12.ok.us,35.426162,-97.53726
BRAY-DOYLE,BRAY-DOYLE HS,69-I042,705,108,19,09-12,(580) 658-5071,1205 South Brooks Road,Marlow,OK,73055,STEPHENS,James Vines,jvines@braydoyle.k12.ok.us,35.426162,-97.53726
BRIDGE CREEK,BRIDGE CREEK ES,26-I095,105,770,51,PK-05,(405) 387-3681,2209 East Sooner Road,Blanchard,OK,73010,GRADY,Tina Floyd,tfloyd@bridgecreek.k12.ok.us,35.494334,-97.471183
BRIDGE CREEK,BRIDGE CREEK MS,26-I095,505,299,34,06-08,(405) 387-9681,2209 East Sooner Road,Blanchard,OK,73010,GRADY,Kenneth Ward,kward@bridgecreek.k12.ok.us,35.494334,-97.471183
BRIDGE CREEK,BRIDGE CREEK HS,26-I095,705,425,39,09-12,(405) 387-3981,2209 East Sooner Road,Blanchard,OK,73010,GRADY,Joe Billington,jbillingtonl@bridgecreek.k12.ok.us,35.494334,-97.471183
BRIGGS,BRIGGS PUBLIC SCHOOL,11-C044,105,463,37,PK-08,(918) 456-4221,17210 South 569 Road,Tahlequah,OK,74464,CHEROKEE,George Ritzhaupt,gritzy@briggs.k12.ok.us,35.852285,-94.990604
BRISTOW,EDISON ES,19-I002,110,521,34,PK-02,(918) 367-5521,111 W. 9th Ave.,Bristow,OK,74010,CREEK,Debbie Ponder,dponder@bristow.k12.ok.us,36.112066,-97.059496
BRISTOW,COLLINS ES,19-I002,115,400,29,03-05,(918) 367-5551,420 N. Main,Bristow,OK,74010,CREEK,Vicki Groom,vgroom@bristow.k12.ok.us,35.833774,-96.401554
BRISTOW,BRISTOW MS,19-I002,505,393,44,06-08,(918) 367-3551,420 N. Main,Bristow,OK,74010,CREEK,Brian Burden,bburden@bristow.k12.ok.us,35.833774,-96.401554
BRISTOW,BRISTOW HS,19-I002,705,467,50,09-12,(918) 367-2241,420 N. Main,Bristow,OK,74010,CREEK,Brandon Poteet,bpoteet@bristow.k12.ok.us,35.833774,-96.401554
BROKEN ARROW,CREEKWOOD EARLY CHILDHOOD CTR,72-I003,100,315,23,PK-PK,(918) 505-5280,1351 E Albany St,Broken Arrow,OK,74012,TULSA,Teresa Bowker,tdbowker@baschools.org,36.075837,-95.816868
BROKEN ARROW,ARROW SPRINGS EARLY CHILDHOOD,72-I003,103,228,16,PK-PK,(918) 259-4380,101 W Twin Oaks St,Broken Arrow,OK,74011,TULSA,,,35.583773,-97.511109
BROKEN ARROW,ARROW SPRINGS EARLY CHILDHOOD,72-I003,103,228,16,PK-PK,(918) 259-4380,101 W Twin Oaks St,Broken Arrow,OK,74011,TULSA,Debbie Mcclellan,dmcclellan@baschools.org,35.583773,-97.511109
BROKEN ARROW,ASPEN CREEK EC CENTER,72-I003,105,295,18,PK-PK,(918) 505-5290,2700 West Florence,Broken Arrow,OK,74011,TULSA,Julie Gateley,jgateley@baschools.org,36.015434,-95.790858
BROKEN ARROW,PARKLANE EARLY CHILDHOOD CTR,72-I003,107,250,18,PK-PK,(918) 806-8665,7700 South Shelby Lane,Broken Arrow,OK,74014,TULSA,Barbara Jones,bajones@baschools.org,36.051583,-95.715393
BROKEN ARROW,RHOADES ES,72-I003,110,474,43,KG-05,(918) 259-4440,320 East Midway St,Broken Arrow,OK,74012,TULSA,Dawna Mosburg,dkmosburg@baschools.org,36.084628,-95.770537
BROKEN ARROW,ARROWHEAD ES,72-I003,120,439,64,KG-05,(918) 259-4390,915 West Norman Ave,Broken Arrow,OK,74012,TULSA,Sheri Pulliam,spulliam@baschools.org,36.075837,-95.816868
BROKEN ARROW,VANDEVER ES,72-I003,125,473,40,PK-05,(918) 259-4490,2200 South Lions Ave,Broken Arrow,OK,74012,TULSA,Vicki Beckwith,vbeckwith@baschools.org,36.063754,-95.778415
BROKEN ARROW,HIGHLAND PARK ES,72-I003,135,850,51,KG-05,(918) 505-5930,7200 East Quincy Place,Broken Arrow,OK,74014,TULSA,Karen Morrison,kmorrison@baschools.org,36.09837,-95.758032
BROKEN ARROW,LYNN WOOD ES,72-I003,140,508,40,KG-05,(918) 259-4430,1600 West Quincy Ave,Broken Arrow,OK,74012,TULSA,Chris England,cengland@baschools.org,36.061294,-95.832553
BROKEN ARROW,LEISURE PARK ES,72-I003,150,672,48,KG-05,(918) 259-4420,4300 South Juniper Place,Broken Arrow,OK,74011,TULSA,Janet Dotson,jdotson@baschools.org,36.013303,-95.815763
BROKEN ARROW,SPRING CREEK ES,72-I003,160,525,38,KG-05,(918) 259-4480,6801 South Third St,Broken Arrow,OK,74011,TULSA,Tara White,twhite@baschools.org,35.986456,-95.786958
BROKEN ARROW,WOLF CREEK ES,72-I003,165,562,39,KG-05,(918) 259-4510,3000 West New Orleans St,Broken Arrow,OK,74011,TULSA,Stacy Strow,sstrow@baschools.org,36.015434,-95.790858
BROKEN ARROW,COUNTRY LANE PRIMARY ES,72-I003,170,830,55,KG-02,(918) 259-4400,301 East Omaha St,Broken Arrow,OK,74012,TULSA,Leslie Officer,leofficer@baschools.org,36.085835,-95.768746
BROKEN ARROW,LIBERTY ES,72-I003,175,760,52,KG-05,(918) 259-4470,4300 South 209th East Ave,Broken Arrow,OK,74014,TULSA,Elora Orr,eorr@baschools.org,36.100104,-95.752217
BROKEN ARROW,COUNTRY LANE INTERMEDIATE ES,72-I003,180,850,57,03-05,(918) 449-5600,251 East Omaha St,Broken Arrow,OK,74012,TULSA,Todd Greathouse,tjgreathouse@baschools.org,36.085835,-95.768746
BROKEN ARROW,CREEKWOOD ES,72-I003,200,679,50,KG-05,(918) 259-4500,1301 East Albany St,Broken Arrow,OK,74012,TULSA,Tiffany Green,tjgreen@baschools.org,36.075837,-95.816868
BROKEN ARROW,ASPEN CREEK ES,72-I003,205,665,46,KG-05,(918) 259-4410,2800 West Florence,Broken Arrow,OK,74011,TULSA,Larry Smith,lsmith1@baschools.org,36.004458,-95.822065
BROKEN ARROW,OAK CREST ES,72-I003,215,401,35,KG-05,(918) 259-4450,405 E Richmond St,Broken Arrow,OK,74012,TULSA,Heather Adams,hadams1@baschools.org,35.479572,-97.50541
BROKEN ARROW,CENTENNIAL MS,72-I003,505,1060,79,06-08,(918) 259-4340,225 East Omaha St,Broken Arrow,OK,74012,TULSA,Kenneth Kinzer,kwkinzer@baschools.org,36.085835,-95.768746
BROKEN ARROW,SEQUOYAH MS,72-I003,510,568,48,06-08,(918) 259-4370,2701 South Elm Place,Broken Arrow,OK,74012,TULSA,Beth Gilbert,bgilbert@baschools.org,36.018794,-95.795886
BROKEN ARROW,CHILDERS MS,72-I003,520,775,54,06-08,(918) 259-4350,301 East Tucson St,Broken Arrow,OK,74011,TULSA,Stacy Replogle,sdreplogle@baschools.org,35.986742,-95.785799
BROKEN ARROW,OLIVER MS,72-I003,525,817,57,06-08,(918) 259-4590,3100 W New Orleans,Broken Arrow,OK,74011,TULSA,Jill Whitaker,sjwhitaker@baschools.org,36.015434,-95.790858
BROKEN ARROW,ONETA RIDGE MS,72-I003,530,814,60,06-08,(918) 259-4360,6800 East Quincy Place,Broken Arrow,OK,74014,TULSA,Mickey Replogle,mreplogle@baschools.org,36.09837,-95.758032
BROKEN ARROW,BROKEN ARROW FRESHMAN ACADEMY,72-I003,700,1280,100,09-09,(918) 259-4330,301 W New Orleans,Broken Arrow,OK,74011,TULSA,Margaret Coates,mcoates@baschools.org,36.015434,-95.790858
BROKEN ARROW,BROKEN ARROW HS,72-I003,720,3778,268,09-12,(918) 259-4310,1901 E Albany,Broken Arrow,OK,74012,TULSA,Elizabeth Burns,lburns@baschools.org,36.085835,-95.768746
BROKEN BOW,BENNETT ES,48-I074,110,323,28,03-05,(580) 584-6440,108 West Fifth St,Broken Bow,OK,74728,MCCURTAIN,Jarod Bible,jbible@bbisd.org,34.019199,-94.744349
BROKEN BOW,DIERKS ES,48-I074,120,417,31,PK-02,(580) 584-2765,108 West Fifth St,Broken Bow,OK,74728,MCCURTAIN,Terry Stricker,tstricker@bbisd.org,34.019199,-94.744349
BROKEN BOW,RECTOR JOHNSON MS,48-I074,505,337,37,06-08,(580) 584-9603,108 West Fifth St,Broken Bow,OK,74728,MCCURTAIN,Belinda Highful,bmhighful@bbisd.org,34.019199,-94.744349
BROKEN BOW,BROKEN BOW HS,48-I074,705,623,57,09-12,(580) 584-3365,108 West Fifth St,Broken Bow,OK,74728,MCCURTAIN,Luke Hanks,lhanks@bbisd.org,34.019199,-94.744349
BRUSHY,BRUSHY PUBLIC SCHOOL,68-C036,105,403,24,PK-08,(918) 775-4458,100968 S 4650 Rd,Sallisaw,OK,74955,SEQUOYAH,Greg Reynolds,greynolds@brushy.k12.ok.us,35.477142,-97.500546
BUFFALO VALLEY,BUFFALO VALLEY ES,39-I003,105,91,17,PK-08,(918) 522-4802,4384 Southeast Highway 63,Talihina,OK,74571,LATIMER,Diana Hames,dhames@bvpsd.org,35.417519,-97.501969
BUFFALO VALLEY,BUFFALO VALLEY HS,39-I003,705,53,14,09-12,(918) 522-4803,4384 Southeast Highway 63,Talihina,OK,74571,LATIMER,Diana Hames,dhames@bvpsd.org,35.417519,-97.501969
BYNG,BYNG ES,62-I016,105,263,29,04-06,(580) 310-6723,500 South New Bethel Blvd,Ada,OK,74820,PONTOTOC,Dennis Kymes,dkymes@byngschools.com,34.775145,-96.678479
BYNG,HOMER ES,62-I016,110,640,52,PK-05,(580) 559-0200,1400 North Monte Vista,Ada,OK,74820,PONTOTOC,Vicki Wilson,vickiw@byngschools.com,34.775145,-96.678479
BYNG,FRANCIS ES,62-I016,115,264,23,PK-03,(580) 559-0270,500 S. New Bethel Blvd,Ada,OK,74820,PONTOTOC,Johna Hancock,jhancock@byngschools.com,34.775145,-96.678479
BYNG,BYNG JHS,62-I016,610,374,53,07-09,(580) 310-6744,500 South New Bethel Blvd,Ada,OK,74820,PONTOTOC,Kevin Wilson,wilson@byngschools.com,34.775145,-96.678479
BYNG,BYNG HS,62-I016,705,293,54,10-12,(580) 310-6733,500 South New Bethel Blvd,Ada,OK,74820,PONTOTOC,Scott Lowrance,lowrance@byngschools.com,34.775145,-96.678479
CACHE,CACHE PRIMARY ES,16-I001,105,335,27,PK-01,(580) 429-3542,102 East H Ave,Cache,OK,73527,COMANCHE,Jacqueline Green,jgreen@cache.k12.ok.us,35.413136,-97.510581
CACHE,CACHE INTERMEDIATE ES,16-I001,110,397,33,02-04,(580) 429-8536,102 East H Ave,Cache,OK,73527,COMANCHE,Rellon Sampler,ssampler@cache.k12.ok.us,35.413136,-97.510581
CACHE,CACHE MS,16-I001,505,312,32,07-08,(580) 429-8489,102 East H Ave,Cache,OK,73527,COMANCHE,Mitch Ange,mange@cache.k12.ok.us,35.413136,-97.510581
CACHE,CACHE 5TH AND 6TH GRADE MS,16-I001,530,293,28,05-06,(580) 429-0222,102 East H Ave,Cache,OK,73527,COMANCHE,Debbie Hoffman,dhoffman@cache.k12.ok.us,35.413136,-97.510581
CACHE,CACHE HS,16-I001,705,533,49,09-12,(580) 429-3214,102 East H Ave,Cache,OK,73527,COMANCHE,Cindy White,cindy.white@cacheps.org,35.413136,-97.510581
CALUMET,CALUMET HS,09-I076,705,72,14,09-12,(405) 893-2222,110 N. Freehome,Calumet,OK,73014,CANADIAN,Chuck Hood,hoodc@chs.k12.ok.us,35.486311,-97.507483
CANEY VALLEY,CANEY VALLEY ES,74-I018,110,411,31,PK-05,(918) 535-2205,401 West Main,Ochelata,OK,74051,WASHINGTON,Kelli Longan,klongan@cvalley.k12.ok.us,36.64868,-95.97224
CARNEGIE,CARNEGIE ES,08-I033,105,300,22,PK-05,(580) 654-1945,330 West Wildcat Drive,Carnegie,OK,73015,CADDO,Lori Graham,lgraham@carnegie.k12.ok.us,35.485219,-97.505963
CARNEGIE,CARNEGIE MS,08-I033,510,125,19,06-08,(580) 654-1766,330 West Wildcat Drive,Carnegie,OK,73015,CADDO,Jane Nix,jnix@carnegie.k12.ok.us,35.485219,-97.505963
CARNEGIE,CARNEGIE HS,08-I033,705,146,21,09-12,(580) 654-1266,330 West Wildcat Drive,Carnegie,OK,73015,CADDO,Jerry Hulme,jhulme@carnegie.k12.ok.us,35.485219,-97.505963
CASHION,CASHION ES,37-I089,105,243,20,PK-05,(405) 433-2614,101 North Euclid,Cashion,OK,73016,KINGFISHER,Rebecca Weber,rweber@cashionps.org,35.481158,-97.47887
CASHION,CASHION MS,37-I089,505,124,16,06-08,(405) 433-2575,101 North Euclid,Cashion,OK,73016,KINGFISHER,,,35.481158,-97.47887
CASHION,CASHION MS,37-I089,505,124,16,06-08,(405) 433-2575,101 North Euclid,Cashion,OK,73016,KINGFISHER,Ryan Schenk,rschenk@cashionps.org,35.481158,-97.47887
CASHION,CASHION HS,37-I089,705,150,18,09-12,(405) 433-2575,101 North Euclid,Cashion,OK,73016,KINGFISHER,Ryan Schenk,rschenk@cashionps.org,35.481158,-97.47887
CATOOSA,J. W. SAM ES,66-I002,105,291,27,02-03,(918) 266-8637,2000 South Cherokee St,Catoosa,OK,74015,ROGERS,Cyndi Flanary,cflanary@catoosa.k12.ok.us,36.167424,-95.754084
CATOOSA,CHEROKEE ES,66-I002,110,294,25,04-05,(918) 266-8630,2000 South Cherokee St,Catoosa,OK,74015,ROGERS,Kristi Surface,ksurface@catoosa.k12.ok.us,36.167424,-95.754084
CATOOSA,HELEN PAUL LEARNING CTR,66-I002,115,419,27,PK-01,(918) 266-8643,2000 South Cherokee St,Catoosa,OK,74015,ROGERS,Tyra Haight,thaight@catoosa.k12.ok.us,36.167424,-95.754084
CATOOSA,WELLS MS,66-I002,510,480,58,06-08,(918) 266-8623,2000 South Cherokee St,Catoosa,OK,74015,ROGERS,Della Parrish,dparrish@catoosa.k12.ok.us,36.167424,-95.754084
CATOOSA,CATOOSA HS,66-I002,705,624,64,09-12,(918) 266-8619,2000 South Cherokee St,Catoosa,OK,74015,ROGERS,Darren Peaster,dpeaster@catoosa.k12.ok.us,36.167424,-95.754084
CENTRAL,CENTRAL ES,68-I007,105,326,39,PK-08,(918) 775-2216,108089 South 4670 Road,Sallisaw,OK,74955,SEQUOYAH,Beverly Cawhorn,bscawhorn@centralps.k12.ok.us,35.454745,-94.800312
CENTRAL,CENTRAL HS,68-I007,705,179,25,09-12,(918) 775-5525,108089 South 4670 Road,Sallisaw,OK,74955,SEQUOYAH,Brooks Cawhorn,hbcawhorn@centralps.k12.ok.us,35.454745,-94.800312
CENTRAL HIGH,CENTRAL HIGH ES,69-I034,105,234,18,PK-06,(580) 658-2970,274801 Broncho Rd,Marlow,OK,73055,STEPHENS,Leann Johnson,ljohnson@central.k12.ok.us,35.66106,-97.47243
CENTRAL HIGH,CENTRAL HIGH JHS,69-I034,600,87,16,07-09,(580) 658-2929,274801 Broncho Rd,Marlow,OK,73055,STEPHENS,Mark Perry,mperry@central.k12.ok.us,35.66106,-97.47243
CENTRAL HIGH,CENTRAL HIGH HS,69-I034,705,92,16,10-12,(580) 658-2929,274801 Broncho Rd,Marlow,OK,73055,STEPHENS,Mark Perry,mperry@central.k12.ok.us,35.66106,-97.47243
CHANDLER,EAST SIDE ES,41-I001,110,362,21,PK-02,(405) 258-1872,901 South Chs St,Chandler,OK,74834,LINCOLN,Lisa Hart,lhart@chandler.k12.ok.us,35.709121,-96.990532
CHANDLER,PARK ROAD ES,41-I001,120,357,29,03-06,(405) 258-1828,901 South Chs St,Chandler,OK,74834,LINCOLN,Melody Toma,mtoma@chandler.k12.ok.us,35.709121,-96.990532
CHANDLER,CHANDLER JHS,41-I001,610,185,29,07-08,(405) 258-0183,901 South Chs St,Chandler,OK,74834,LINCOLN,Kent Barton,kbarton@chandler.k12.ok.us,35.709121,-96.990532
CHANDLER,CHANDLER HS,41-I001,705,313,33,09-12,(405) 258-1269,901 South Chs St,Chandler,OK,74834,LINCOLN,Randy Hedge,rhedge@chandler.k12.ok.us,35.709121,-96.990532
CHECOTAH,CHECOTAH HS,49-I019,705,458,46,09-12,(918) 473-2239,491 W Paul Carr Drive,Checotah,OK,74426,MCINTOSH,Brian Terry,bterry@checotah.k12.ok.us,35.470919,-97.196162
CHELSEA,ART GOAD ES,66-I003,110,475,32,PK-05,(918) 789-2503,401 Redbud Lane,Chelsea,OK,74016,ROGERS,Zenda Willcut,zwillcut@chelseadragons.net,35.581298,-97.569752
CHELSEA,CHELSEA MS,66-I003,510,189,22,06-08,(918) 789-2521,401 Redbud Lane,Chelsea,OK,74016,ROGERS,Howard Hill,hhill@chelseadragons.net,35.581298,-97.569752
CHELSEA,CHELSEA HS,66-I003,705,279,29,09-12,(918) 789-2533,401 Redbud Lane,Chelsea,OK,74016,ROGERS,Howard Hill,hhill@chelseadragons.net,35.581298,-97.569752
CHEROKEE,CHEROKEE ES,02-I046,105,228,26,PK-05,(580) 596-3277,700 S. Nebraska,Cherokee,OK,73728,ALFALFA,Ruth Richmond,richmondr@cherokee.k12.ok.us,35.473671,-97.479152
CHEROKEE,CHEROKEE HS,02-I046,705,105,22,09-12,(580) 596-3391,412 E. 5th St,Cherokee,OK,73728,ALFALFA,Jeremy Hickman,hickmanj@cherokee.k12.ok.us,37.924028,-99.408184
CHICKASHA,GRAND AVENUE ES,26-I001,105,536,45,02-04,(405) 222-6524,900 West Choctaw Ave,Chickasha,OK,73018,GRADY,Mickey Edwards,cstone@chickasha.k12.ok.us,35.049833,-97.929043
CHICKASHA,LINCOLN ES,26-I001,115,,34,-,(405) 222-6522,900 West Choctaw Ave,Chickasha,OK,73018,GRADY,Pam Charlson,pcharlson@chickasha.k12.ok.us,35.049833,-97.929043
CHICKASHA,BILL WALLACE EC CTR,26-I001,120,555,45,PK-01,(405) 222-6544,900 West Choctaw Ave,Chickasha,OK,73018,GRADY,Tressia Meeks,tmeeks@chickasha.k12.ok.us,35.049833,-97.929043
CHICKASHA,CHICKASHA MS,26-I001,510,,44,-,(405) 222-6530,900 West Choctaw Ave,Chickasha,OK,73018,GRADY,Dan Turner,dturner@chickasha.k12.ok.us,35.049833,-97.929043
CHICKASHA,CHICKASHA HS,26-I001,705,717,70,09-12,(405) 222-6550,900 West Choctaw Ave,Chickasha,OK,73018,GRADY,Steven Couch,scouch@chickasha.k12.ok.us,35.049833,-97.929043
CHISHOLM,CHISHOLM ES,24-I042,105,486,35,PK-05,(580) 237-5645,300 Colorado Ave,Enid,OK,73701,GARFIELD,Darla Smith,dsmith@chisholm.k12.ok.us,33.080693,-96.884767
CHISHOLM,CHISHOLM MS,24-I042,505,237,29,06-08,(580) 234-0234,4202 West Carrier Road,Enid,OK,73703,GARFIELD,Crystal Szymanski,cszymanski@chisholm.k12.ok.us,35.409571,-97.443542
CHISHOLM,CHISHOLM HS,24-I042,705,300,31,09-12,(580) 233-2852,4018 West Carrier Road,Enid,OK,73703,GARFIELD,Shane Dent,sdent@chisholm.k12.ok.us,35.512547,-97.602615
CHOCTAW-NICOMA PARK,INDIAN MERIDIAN ES,55-I004,103,543,34,PK-02,(405) 390-8585,1865 South Indian Meridian,Choctaw,OK,73020,OKLAHOMA,Christiine Floyd,cfloyd@cnpschools.org,35.403534,-97.246236
CHOCTAW-NICOMA PARK,CHOCTAW ES,55-I004,105,378,37,PK-05,(405) 390-2225,14663 Northeast Third St,Choctaw,OK,73020,OKLAHOMA,Cheryl Lidia,clidia@cnpschools.org,33.13433,-97.027733
CHOCTAW-NICOMA PARK,NICOMA PARK ES,55-I004,115,464,32,PK-02,(405) 769-2445,1200 North Hickman Ave,Choctaw,OK,73020,OKLAHOMA,Dorothy Shetley,dshetley@cnpschools.org,35.593686,-97.490246
CHOCTAW-NICOMA PARK,NICOMA PARK INTERMEDIATE ES,55-I004,120,379,28,03-05,(405) 769-4693,1318 Hickman Ave,Choctaw,OK,73020,OKLAHOMA,Misti Tye,mtye@cnpschools.org,33.134602,-97.026504
CHOCTAW-NICOMA PARK,JAMES GRIFFITH INTERMEDIATE ES,55-I004,125,517,34,03-05,(405) 390-2153,1861 South Indian Meridian,Choctaw,OK,73020,OKLAHOMA,Kelli Hosford,khosford@cnpschools.org,35.403534,-97.246236
CHOCTAW-NICOMA PARK,L. W. WESTFALL ES,55-I004,126,487,35,PK-05,(405) 769-3078,13239 Northeast 10th St,Choctaw,OK,73020,OKLAHOMA,Brenda Stanley,bstanley@cnpschools.org,33.134602,-97.026504
CHOCTAW-NICOMA PARK,NICOMA PARK MS,55-I004,515,572,45,06-08,(405) 769-3106,1321 Hickman Ave,Choctaw,OK,73020,OKLAHOMA,Brent Ingraham,bingraham@cnpschools.org,33.134602,-97.026504
CHOCTAW-NICOMA PARK,CHOCTAW MS,55-I004,520,672,51,06-08,(405) 390-2208,14667 Northeast Third St,Choctaw,OK,73020,OKLAHOMA,Jeanann Gaona,jgaona@cnpschools.org,33.13433,-97.027733
CHOCTAW-NICOMA PARK,CHOCTAW HS,55-I004,705,1659,109,09-12,(405) 390-8899,14300 Northeast 10th St,Choctaw,OK,73020,OKLAHOMA,David Reid,dreid@cnpschools.org,35.476284,-97.27873
CLAREMORE,CLAREMONT ES,66-I001,105,457,40,PK-05,(918) 923-4202,318 East Seventh St,Claremore,OK,74017,ROGERS,Randa Fay,rfay@claremore.k12.ok.us,36.322121,-95.603239
CLAREMORE,ROOSA ES,66-I001,110,405,28,PK-05,(918) 923-4206,2001 North Sioux Ave,Claremore,OK,74017,ROGERS,Glen Abshere,gabshere@claremore.k12.ok.us,36.330363,-95.603137
CLAREMORE,WESTSIDE ES,66-I001,115,551,46,PK-05,(918) 923-4201,2600 Holly Road,Claremore,OK,74017,ROGERS,Traci Thomas,tthomas@claremore.k12.ok.us,35.388649,-97.558696
CLAREMORE,CATALAYAH ES,66-I001,135,430,33,PK-05,(918) 923-4307,2700 King Rd,Claremore,OK,74019,ROGERS,Kellye Shuck,kshuck@claremore.k12.ok.us,35.602787,-97.464696
CLAREMORE,WILL ROGERS JHS,66-I001,610,829,81,06-08,(918) 923-4205,1915 North Florence,Claremore,OK,74017,ROGERS,Brian Young,jbyoung@claremore.k12.ok.us,35.484411,-97.506863
CLAREMORE,CLAREMORE HS,66-I001,705,1343,96,09-12,(918) 923-4211,201 Stuart Roosa,Claremore,OK,74017,ROGERS,Todd Steidley,tsteidley@claremore.k12.ok.us,36.330363,-95.603137
CLAYTON,CRAIN ES,64-I010,105,193,18,PK-08,(918) 569-4158,300 West Pine St.,Clayton,OK,74536,PUSHMATAHA,Tammy Akers,takers@clayton.k12.ok.us,38.528442,-98.536618
CLAYTON,CLAYTON HS,64-I010,705,104,15,09-12,(918) 569-4156,304 N. 1st St.,Clayton,OK,74536,PUSHMATAHA,Bradley Mcneil,bmcneil@clayton.k12.ok.us,33.01678,-96.537329
CLEORA,CLEORA PUBLIC SCHOOL,21-C006,105,120,18,PK-08,(918) 256-6401,451358 East 295 Road,Afton,OK,74331,DELAWARE,Kenny Guthrie,kguthrie@cleora.net,35.479048,-97.504034
CLEVELAND,CLEVELAND PRIMARY ES,59-I006,105,455,29,PK-02,(918) 358-2210,600 North Gilbert Ave,Cleveland,OK,74020,PAWNEE,Dana Wilson,danawilson@clevelandtigers.com,35.485215,-97.502779
CLEVELAND,CLEVELAND INTERMEDIATE ES,59-I006,115,318,27,03-05,(918) 358-2210,600 North Gilbert Ave,Cleveland,OK,74020,PAWNEE,Mark Williams,markwilliams@clevelandtigers.com,35.485215,-97.502779
CLEVELAND,CLEVELAND MS,59-I006,505,405,40,06-08,(918) 358-2210,600 North Gilbert Ave,Cleveland,OK,74020,PAWNEE,Noel Nation,noelnation@clevelandtigers.com,35.485215,-97.502779
CLEVELAND,CLEVELAND HS,59-I006,705,507,48,09-12,(918) 358-2210,600 North Gilbert Ave,Cleveland,OK,74020,PAWNEE,Alan Baker,alanbaker@clevelandtigers.com,35.485215,-97.502779
COALGATE,EMERSON ES,15-I001,105,383,41,PK-06,(580) 927-2350,2 West Cedar,Coalgate,OK,74538,COAL,Greg Davidson,gdavidson@coalgateschools.org,34.53815,-96.21861
COALGATE,WALLACE BYRD MS,15-I001,505,115,27,07-08,(580) 927-3560,2 West Cedar,Coalgate,OK,74538,COAL,Phil Wilkenson,pwilkenson@coalgateschools.org,34.53815,-96.21861
COALGATE,COALGATE HS,15-I001,705,219,30,09-12,(580) 927-2592,2 West Cedar,Coalgate,OK,74538,COAL,Kris Hall,khall@coalgateschools.org,34.53815,-96.21861
COLCORD,COLCORD ES,21-I004,105,382,38,PK-08,(918) 326-4117,433 South Larmon,Colcord,OK,74338,DELAWARE,Robert Hampton,rhampton@colcordschools.com,35.48254,-97.520202
COLCORD,COLCORD HS,21-I004,715,225,24,09-12,(918) 326-4107,433 South Larmon,Colcord,OK,74338,DELAWARE,Jerry Swank,jlswank@colcordschools.com,35.48254,-97.520202
COLLINSVILLE,COLLINSVILLE EC CTR,72-I006,105,343,23,PK-KG,(918) 371-6870,1902 West Maple,Collinsville,OK,74021,TULSA,Ashley Boomer,aboomer@collinsville.k12.ok.us,35.479694,-97.495683
COLLINSVILLE,HERALD ES,72-I006,125,600,40,01-03,(918) 371-4173,1902 W. Maple,Collinsville,OK,74021,TULSA,Cheryl Hunt,chunt@collinsville.k12.ok.us,35.479694,-97.495683
COLLINSVILLE,COLLINSVILLE UPPER ES,72-I006,130,,26,-,(918) 371-2022,1902 W. Maple,Collinsville,OK,74021,TULSA,Arlin Stacy,astacy@collinsville.k12.ok.us,35.479694,-97.495683
COLLINSVILLE,COLLINSVILLE 6TH GRADE CENTER,72-I006,135,214,23,06-06,(918) 371-3144,1902 West Maple,Collinsville,OK,74021,TULSA,Jennipher Keim,jkeim@collinsville.k12.ok.us,35.479694,-97.495683
COLLINSVILLE,COLLINSVILLE MS,72-I006,500,378,47,07-08,(918) 371-2541,1902 West Maple,Collinsville,OK,74021,TULSA,Dale Harp,dharp@collinsville.k12.ok.us,35.479694,-97.495683
COLLINSVILLE,COLLINSVILLE HS,72-I006,705,823,70,09-12,(918) 371-3382,1902 West Maple,Collinsville,OK,74021,TULSA,Jon Coleman,jcoleman@collinsville.k12.ok.us,35.479694,-97.495683
COMANCHE,COMANCHE ES,69-I002,105,479,36,PK-05,(580) 439-2911,1030 Ash Ave,Comanche,OK,73529,STEPHENS,Robin Troutman,rtroutman@comanche.k12.ok.us,35.558351,-97.536006
COMANCHE,COMANCHE MS,69-I002,510,238,35,06-08,(580) 439-2922,1030 Ash Ave,Comanche,OK,73529,STEPHENS,Brent Crow,bcrow@comanche.k12.ok.us,35.558351,-97.536006
COMANCHE,COMANCHE HS,69-I002,705,308,37,09-12,(580) 439-2933,1030 Ash Ave,Comanche,OK,73529,STEPHENS,Steven Dunham,sdunham@comanche.k12.ok.us,35.558351,-97.536006
COMMERCE,ALEXANDER ES,58-I018,105,469,31,PK-05,(918) 675-4336,601 6th St,Commerce,OK,74339,OTTAWA,Kevin Wade,kwade@commercetigers.net,35.474246,-97.501699
COMMERCE,COMMERCE MS,58-I018,505,195,21,06-08,(918) 675-4101,500 Commerce St,Commerce,OK,74339,OTTAWA,Jack Kelley,jkelley@commercetigers.net,33.37706,-95.692817
COMMERCE,COMMERCE HS,58-I018,705,226,30,09-12,(918) 675-4343,420 Doug Furnas Blvd,Commerce,OK,74339,OTTAWA,Jim Buttram,jbuttram@commercetigers.net,35.482061,-97.504741
COVINGTON-DOUGLAS,COVINGTON-DOUGLAS ES,24-I094,105,187,24,PK-08,(580) 864-7849,400 E Maine,Covington,OK,73730,GARFIELD,Darren Sharp,dsharp@c-d.k12.ok.us,35.640755,-97.542845
COVINGTON-DOUGLAS,COVINGTON-DOUGLAS HS,24-I094,705,79,18,09-12,(580) 864-7482,400 E Maine,Covington,OK,73730,GARFIELD,Brian Smith,bsmith@c-d.k12.ok.us,35.640755,-97.542845
CROOKED OAK,CENTRAL OAK ES,55-I053,105,595,44,PK-05,(405) 677-5211,1450 S. Eastern Ave,Oklahoma City,OK,73129,OKLAHOMA,Kim Templeman,ktempleman@crookedoak.org,35.45077,-97.476308
CROOKED OAK,CROOKED OAK MS,55-I053,505,307,25,06-08,(405) 677-5133,1450 S. Eastern Ave,Oklahoma City,OK,73129,OKLAHOMA,Dennis Mccray,dmccray@crookedoak.org,35.45077,-97.476308
CROOKED OAK,CROOKED OAK HS,55-I053,705,,30,-,(405) 677-3452,1450 S. Eastern Ave,Oklahoma City,OK,73129,OKLAHOMA,Barbara Jaramillo,bjaramillo@crookedoak.org,35.45077,-97.476308
CRUTCHO,CRUTCHO PUBLIC SCHOOL,55-C074,105,407,29,PK-08,(405) 427-3771,2401 North Air Depot Blvd,Oklahoma City,OK,73141,OKLAHOMA,Teresa Mcafee,tmcafee@crutchoesd.org,35.592441,-97.408372
CUSHING,CUSHING PRE-KINDERGARTEN SCHL,60-I067,120,101,8,PK-PK,(918) 225-4683,1919 South Kings Highway,Cushing,OK,74023,PAYNE,Sally Wright,sally.wright@cushing.k12.ok.us,35.975851,-96.766628
CUSHING,CUSHING LOWER ES,60-I067,140,276,23,KG-01,(918) 225-4697,1601 South Harmony Road,Cushing,OK,74023,PAYNE,Nancy Dowell,nancy.dowell@cushing.k12.ok.us,35.975851,-96.766628
CUSHING,CUSHING UPPER ES,60-I067,145,434,36,02-04,(918) 225-4497,316 North Steele,Cushing,OK,74023,PAYNE,Martha Cackler,martha.cackler@cushing.k12.ok.us,35.975851,-96.766628
CUSHING,CUSHING MS,60-I067,505,519,48,05-08,(918) 225-1311,521 South Harmony Road,Cushing,OK,74023,PAYNE,Pat Elder,pat.elder@cushing.k12.ok.us,35.975851,-96.766628
CUSHING,CUSHING HS,60-I067,705,521,56,09-12,(918) 225-6622,1700 East Walnut St,Cushing,OK,74023,PAYNE,James Lauerman,jim.lauerman@cushing.k12.ok.us,35.984246,-96.755229
DAHLONEGAH,DAHLONEGAH PUBLIC SCHOOL,01-C029,105,134,16,PK-08,(918) 696-7807,"Rural Route 1, Box 1795",Stilwell,OK,74960,ADAIR,Jeff Limore,jtlimore@dahlonegah.k12.ok.us,35.46454,-97.565142
DALE,DALE ES,63-I002,105,365,23,PK-05,(405) 964-5514,300 Smith Ave,Dale,OK,74851,POTTAWATOMIE,Bruce Throckmorton,bthrockmorton@dale.k12.ok.us,35.480006,-97.507114
DALE,DALE MS,63-I002,510,176,21,06-08,(405) 964-2799,300 Smith Ave,Dale,OK,74851,POTTAWATOMIE,Ky Wilkins,kwilkins@dale.k12.ok.us,35.480006,-97.507114
DALE,DALE HS,63-I002,705,228,22,09-12,(405) 964-5555,300 Smith Ave,Dale,OK,74851,POTTAWATOMIE,Ky Wilkins,kwilkins@dale.k12.ok.us,35.480006,-97.507114
DARLINGTON,DARLINGTON PUBLIC SCHOOL,09-C070,105,238,14,PK-08,(405) 262-0137,4408 North Highway 81,El Reno,OK,73036,CANADIAN,Cheryl Garrison,cgarrison@darlington.k12.ok.us,35.51618,-97.59957
DAVENPORT,DAVENPORT ES,41-I003,105,275,17,PK-08,(918) 377-2279,417 Broadway,Davenport,OK,74026,LINCOLN,Misty Emmons,memmons@davenport.k12.ok.us,35.424064,-97.514487
DAVENPORT,DAVENPORT HS,41-I003,705,117,14,09-12,(918) 377-2278,417 Broadway,Davenport,OK,74026,LINCOLN,Misty Emmons,memmons@davenport.k12.ok.us,35.424064,-97.514487
DAVIS,DAVIS ES,50-I010,105,469,39,PK-04,(580) 369-5544,400 East Atlanta Ave,Davis,OK,73030,MURRAY,Tammie Webb,twebb@davis.k12.ok.us,34.505891,-97.10665
DAVIS,DAVIS MS,50-I010,505,319,40,05-08,(580) 369-5565,400 East Atlanta Ave,Davis,OK,73030,MURRAY,Jeff Jennings,j_jennings@davis.k12.ok.us,34.505891,-97.10665
DAVIS,DAVIS HS,50-I010,705,288,40,09-12,(580) 369-5541,400 East Atlanta Ave,Davis,OK,73030,MURRAY,Rod Maynard,rodmaynard@davis.k12.ok.us,34.505891,-97.10665
DEBORAH BROWN (CHARTER),DEBORAH BROWN COMMUNITY SCHOOL,72-G001,972,253,8,PK-03,(918) 425-1407,2 South Elgin Ave,Tulsa,OK,74120,TULSA,Deborah Brown,dbrown@dbcschool.org,36.15402,-95.985351
DEER CREEK,DEER CREEK ES,55-I006,105,418,31,PK-04,(405) 348-9100,4704 North West 164th St,Edmond,OK,73013,OKLAHOMA,Bettina Kates,katesb@deercreek.k12.ok.us,35.637822,-97.518631
DEER CREEK,PRAIRIE VALE ES,55-I006,110,541,38,PK-04,(405) 359-3170,22522 North Pennsylvania Ave,Edmond,OK,73025,OKLAHOMA,Michelle Anderson,andersonm@deercreek.k12.ok.us,35.713421,-97.561191
DEER CREEK,ROSE UNION ES,55-I006,115,552,45,PK-04,(405) 359-3188,5100 Northwest 220th St,Edmond,OK,73025,OKLAHOMA,Tina Nunn,nunnt@deercreek.k12.ok.us,35.713421,-97.561191
DEER CREEK,GROVE VALLEY ES,55-I006,120,537,35,PK-04,(405) 359-3195,3500 Northwest 192Nd St,Edmond,OK,73012,OKLAHOMA,Kelly Faught,faughtk@deercreek.k12.ok.us,35.654415,-97.547978
DEER CREEK,DEER CREEK INTERMEDIATE SCHOOL,55-I006,125,831,50,05-06,(405) 348-4830,21175 North Macarthur,Edmond,OK,73012,OKLAHOMA,Marshall Ottinger,ottingerm@deercreek.k12.ok.us,35.491259,-97.617819
DEER CREEK,SPRING CREEK ES,55-I006,130,437,31,KG-04,(405) 340-0530,15400 North Rockwell,Oklahoma City,OK,73103,OKLAHOMA,Michelle Eidson,eidsonm@deercreek.k12.ok.us,35.478854,-97.50071
DEER CREEK,DEER CREEK MS,55-I006,505,855,59,07-08,(405) 348-4830,2601 Northwest 234th St,Edmond,OK,73012,OKLAHOMA,Reuben Bellows,bellowsr@deercreek.k12.ok.us,35.654415,-97.547978
DEER CREEK,DEER CREEK HS,55-I006,705,1457,83,09-12,(405) 348-5720,6101 Northwest 206th St,Edmond,OK,73012,OKLAHOMA,Melissa Jordan,jordanm@deercreek.k12.ok.us,35.654415,-97.547978
DEER CREEK-LAMONT,DEER CREEK-LAMONT ES,27-I095,105,116,21,PK-08,(580) 267-3241,1643 Main St,Deer Creek,OK,74636,GRANT,Barbara Regier,bregier@dclak12.org,35.468147,-97.542955
DENISON,DENISON PUBLIC SCHOOL,48-C037,105,325,23,PK-08,(580) 286-3319,3001 East Washington,Idabel,OK,74745,MCCURTAIN,Toni Butler,tbutler@denison.k12.ok.us,35.47957,-97.506943
DEWEY,DEWEY ES,74-I007,115,616,43,PK-05,(918) 534-3800,One Bulldogger Road,Dewey,OK,74029,WASHINGTON,Jerri Moore,jdmoore@deweyk12.org,35.481788,-97.498011
DEWEY,DEWEY MS,74-I007,510,281,34,06-08,(918) 534-0111,One Bulldogger Road,Dewey,OK,74029,WASHINGTON,Brent Massey,bmmassey@deweyk12.org,35.481788,-97.498011
DEWEY,DEWEY HS,74-I007,705,367,40,09-12,(918) 534-0933,One Bulldogger Road,Dewey,OK,74029,WASHINGTON,Brent Dugger,badugge@deweyk12.org,35.481788,-97.498011
DICKSON,DICKSON ES,10-I077,105,372,30,PK-02,(580) 223-9509,4762 State Highway 199,Ardmore,OK,73401,CARTER,Debby Custer,dcuster@dickson.k12.ok.us,34.134828,-97.106936
DICKSON,DICKSON UPPER ES,10-I077,110,286,23,03-05,(580) 223-1443,4762 State Highway 199,Ardmore,OK,73401,CARTER,David Gardner,dgardner@dickson.k12.ok.us,34.134828,-97.106936
DICKSON,DICKSON MS,10-I077,510,303,33,06-08,(580) 223-2700,4762 State Highway 199,Ardmore,OK,73401,CARTER,Matt Krimmer,mkrimmer@dickson.k12.ok.us,34.134828,-97.106936
DICKSON,DICKSON HS,10-I077,705,376,41,09-12,(580) 226-0633,4762 State Highway 199,Ardmore,OK,73401,CARTER,Rex Trent,rtrent@dickson.k12.ok.us,34.134828,-97.106936
DISCOVERY SCHOOLS OF TULSA,DISCOVERY SCHOOL OF TULSA,72-G003,971,466,31,KG-08,(918) 960-3131,4821 South 72Nd East Ave,Tulsa,OK,74145,TULSA,Maureen Brown,brown@discoveryok.org,36.098711,-95.896471
DISCOVERY SCHOOLS OF TULSA,DOVE SCIENCE ACADEMY (TULSA),72-G003,972,590,43,06-12,(918) 834-3936,280 South Memorial Drive,Tulsa,OK,74112,TULSA,Abidin Erez,erez@dsatulsa.org,36.159601,-95.883531
DRUMRIGHT,BRADLEY ES,19-I039,115,251,22,PK-05,(918) 352-9519,508 South Skinner Ave,Drumright,OK,74030,CREEK,Tara Osterhout,tosterhout@drumright.k12.ok.us,35.414511,-97.501035
DRUMRIGHT,VIRGIL COOPER MS,19-I039,505,107,18,06-08,(918) 352-2318,510 South Skinner Ave,Drumright,OK,74030,CREEK,Kevin Bilyeu,kbilyeu@drumright.k12.ok.us,35.417525,-97.500915
DRUMRIGHT,DRUMRIGHT HS,19-I039,705,202,22,09-12,(918) 352-2152,301 South Pennsylvania Ave,Drumright,OK,74030,CREEK,Judd Matthes,jmatthes@drumright.k12.ok.us,35.43461,-97.547445
DURANT,WASHINGTON IRVING ES,07-I072,105,610,38,PK-03,(580) 924-3805,812 West Locust St,Durant,OK,74701,BRYAN,Lisa Whitley,lisa.whitley@durantisd.org,33.998743,-96.410564
DURANT,ROBERT E. LEE ES,07-I072,110,270,17,PK-03,(580) 924-3628,824 West Louisiana St,Durant,OK,74701,BRYAN,Jan Chaffin,jan.chaffin@durantisd.org,33.998743,-96.410564
DURANT,NORTHWEST HEIGHTS ES,07-I072,115,632,39,PK-03,(580) 924-5595,1715 W University Blvd,Durant,OK,74701,BRYAN,Valerie Crabtree,valerie.crabtree@durantisd.org,33.078253,-96.881946
DURANT,DURANT INTERMEDIATE ES,07-I072,125,748,57,04-06,(580) 924-1397,1314 Waco St,Durant,OK,74701,BRYAN,Aaron Mccoy,aaron.mccoy@durantisd.org,33.43235,-96.582182
DURANT,DURANT MS,07-I072,500,517,39,07-08,(580) 924-1321,802 West Walnut St,Durant,OK,74701,BRYAN,Kenny Chaffin,kenny.chaffin@durantisd.org,33.998743,-96.410564
DURANT,DURANT HS,07-I072,705,918,75,09-12,(580) 924-4424,950 Gerlach Drive,Durant,OK,74701,BRYAN,Cheryl Conditt,cheryl.conditt@durantisd.org,35.503144,-97.494655
EDMOND,CLEGERN ES,55-I012,105,397,42,PK-05,(405) 340-2955,601 South Jackson St,Edmond,OK,73034,OKLAHOMA,Teri Cowden-Draper,teri.draper@edmondschools.net,35.647538,-97.452881
EDMOND,RUSSELL DOUGHERTY ES,55-I012,110,311,27,PK-05,(405) 340-2985,19 North Blvd,Edmond,OK,73003,OKLAHOMA,Penny Dilg,penny.dilg@edmondschools.net,35.662465,-97.513711
EDMOND,IDA FREEMAN ES,55-I012,115,497,44,PK-05,(405) 340-2965,501 West Hurd St,Edmond,OK,73003,OKLAHOMA,Keith Pautler,keith.pautler@edmondschools.net,35.682464,-97.495538
EDMOND,NORTHERN HILLS ES,55-I012,122,711,50,PK-05,(405) 340-2975,901 East Wayne St,Edmond,OK,73034,OKLAHOMA,Michele Milner,michele.milner@edmondschools.net,35.652346,-97.461531
EDMOND,ORVIS RISNER ES,55-I012,125,587,50,PK-05,(405) 340-2984,2801 South Rankin St,Edmond,OK,73013,OKLAHOMA,Penny Gooch,penny.gooch@edmondschools.net,35.637606,-97.539867
EDMOND,SUNSET ES,55-I012,130,697,51,PK-05,(405) 340-2990,400 West Eighth St,Edmond,OK,73003,OKLAHOMA,Kartina Mcdaniel,kartina.mcdaniel@edmondschools.net,35.682464,-97.495538
EDMOND,WILL ROGERS ES,55-I012,135,690,51,PK-05,(405) 340-2995,1215 East Ninth St,Edmond,OK,73034,OKLAHOMA,Sheron House,sheron.house@edmondschools.net,35.652299,-97.46598
EDMOND,CHISHOLM ES,55-I012,140,823,59,PK-05,(405) 340-2950,2300 Southeast 33rd St,Edmond,OK,73013,OKLAHOMA,Thomas Higdon,thomas.higdon@edmondschools.net,35.627974,-97.555242
EDMOND,JOHN ROSS ES,55-I012,145,858,56,PK-05,(405) 340-2970,1901 Thomas Drive,Edmond,OK,73003,OKLAHOMA,Christa Ellis,christa.ellis@edmondschools.net,35.459755,-97.445755
EDMOND,CHARLES HASKELL ES,55-I012,150,828,58,PK-05,(405) 340-2945,1701 Northwest 150th St,Edmond,OK,73013,OKLAHOMA,Dayna Hamilton,dayna.hamilton@edmondschools.net,35.637822,-97.518631
EDMOND,CROSS TIMBERS ES,55-I012,155,869,55,PK-05,(405) 340-2200,4800 North Kelly Ave,Edmond,OK,73025,OKLAHOMA,Jamila Crawford,jamila.crawford@edmondschools.net,35.713421,-97.561191
EDMOND,WASHINGTON IRVING ES,55-I012,160,762,52,PK-05,(405) 340-2210,18101 North Western Ave,Edmond,OK,73012,OKLAHOMA,Kinberly Frank,kimberly.frank@edmondschools.net,35.46713,-97.518351
EDMOND,ANGIE DEBO ES,55-I012,165,918,65,PK-05,(405) 340-2270,16060 North May Ave,Edmond,OK,73013,OKLAHOMA,Candice Delcamp,candice.delcamp@edmondschools.net,35.637822,-97.518631
EDMOND,WEST FIELD ES,55-I012,170,850,53,PK-05,(405) 340-2285,17601 North Pennsylvania,Edmond,OK,73012,OKLAHOMA,Lisa Crosslin,lisa.crosslin@edmondschools.net,35.486483,-97.547433
EDMOND,CENTENNIAL ES,55-I012,175,811,53,PK-05,(405) 340-2275,4400 North Coltrane,Edmond,OK,73034,OKLAHOMA,Jessele Miller,jessele.miller@edmondschools.net,35.643572,-97.474509
EDMOND,FRONTIER ES,55-I012,180,647,46,PK-05,(405) 340-2211,4901 Explorer Dr,Edmond,OK,73003,OKLAHOMA,Cara Jernigan,cara.jernigan@edmondschools.net,35.416582,-97.224932
EDMOND,HERITAGE ES,55-I012,185,518,38,PK-05,(405) 340-2800,400 E Sorghum Mill Rd,Edmond,OK,73034,OKLAHOMA,Cathey Bugg,cathey.bugg@edmondschools.net,35.650719,-97.46583
EDMOND,CIMARRON MS,55-I012,505,803,60,06-08,(405) 340-2935,3701 South Bryant Ave,Edmond,OK,73013,OKLAHOMA,Cordell Ehrich,cordell.ehrich@edmondschools.net,35.638948,-97.547957
EDMOND,CHEYENNE MS,55-I012,510,986,71,06-08,(405) 330-7380,1271 West Covell Road,Edmond,OK,73003,OKLAHOMA,Susie Schinnerer,susie.schinnerer@edmondschools.net,35.682464,-97.495538
EDMOND,SEQUOYAH MS,55-I012,515,1344,86,06-08,(405) 340-2900,1125 East Danforth Road,Edmond,OK,73034,OKLAHOMA,Jason Galloway,jason.galloway@edmondschools.net,35.666297,-97.237102
EDMOND,SUMMIT MS,55-I012,520,1231,81,06-08,(405) 340-2920,1703 Northwest 150th St,Edmond,OK,73013,OKLAHOMA,Shana Perry,shana.perry@edmondschools.net,35.637822,-97.518631
EDMOND,CENTRAL MS,55-I012,525,836,67,06-08,(405) 340-2890,500 East Ninth St,Edmond,OK,73034,OKLAHOMA,Dana Renner,dana.renner@edmondschools.net,35.652299,-97.46598
EDMOND,MEMORIAL HS,55-I012,705,2155,138,09-12,(405) 340-2850,1000 East 15th St,Edmond,OK,73013,OKLAHOMA,Justin Coffelt,juastin.coffelt@edmondschools.net,35.631367,-97.635455
EDMOND,NORTH HS,55-I012,715,2644,150,09-12,(405) 340-2875,215 West Danforth Road,Edmond,OK,73003,OKLAHOMA,Jason Pittenger,jason.pittenger@edmondschools.net,35.682464,-97.495538
EDMOND,SANTA FE HS,55-I012,720,2220,158,09-12,(405) 340-2230,1901 West 15th St,Edmond,OK,73013,OKLAHOMA,Jason Hayes,jason.hayes@edmondschools.net,35.637843,-97.486268
ELK CITY,FAIRVIEW ES,05-I006,105,315,23,03-04,(580) 225-2590,222 West Broadway Ave,Elk City,OK,73644,BECKHAM,Pam Joy,joy.pam@elkcityschools.com,35.410935,-99.407211
ELK CITY,PIONEER ES,05-I006,110,319,23,PK-KG,(580) 225-7722,222 West Broadway Ave,Elk City,OK,73644,BECKHAM,Amanda Friesen,friesen.amanda@elkcityschools.com,35.410935,-99.407211
ELK CITY,GRANDVIEW 5TH/6TH GRADE CTR,05-I006,115,328,30,05-06,(580) 225-2687,222 West Broadway Ave,Elk City,OK,73644,BECKHAM,Randy Turney,turney.randy@elkcityschools.com,35.410935,-99.407211
ELK CITY,NORTHEAST ES,05-I006,120,336,25,01-02,(580) 225-0194,222 West Broadway Ave,Elk City,OK,73644,BECKHAM,Dee Wilhelm,wilhelm.dee@elkcityschools.com,35.410935,-99.407211
ELK CITY,OPENS 2017-18 EARLY CHILDHOOD,05-I006,125,,0,-,(580) 225-2229,222 West Broadway Ave,Elk City,OK,73644,BECKHAM,Cindy Buckmaster,buckmaster.cindy@elkcityschools.com,35.410935,-99.407211
ELK CITY,8TH AND 9TH GRADE CTR,05-I006,610,431,57,07-09,(580) 225-0476,222 West Broadway Ave,Elk City,OK,73644,BECKHAM,Tammy Russell,russell.tammy@elkcityschools.com,35.410935,-99.407211
ELK CITY,ELK CITY HS,05-I006,705,418,55,10-12,(580) 225-0105,222 West Broadway Ave,Elk City,OK,73644,BECKHAM,Jeff Lewallen,lewallen.jeff@elkcityschools.com,35.410935,-99.407211
ELMORE CITY-PERNELL,ELMORE CITY-PERNELL ES,25-I072,105,314,24,PK-06,(580) 788-2869,100 North Muse Ave,Elmore City,OK,73433,GARVIN,Sheila Riddle,sriddle@ecphs.k12.ok.us,35.578053,-97.511191
ELMORE CITY-PERNELL,ELMORE CITY JHS,25-I072,605,61,18,07-08,(580) 788-2566,100 North Muse Ave,Elmore City,OK,73433,GARVIN,Jackie Sadler,jsadler@ecphs.k12.ok.us,35.578053,-97.511191
ELMORE CITY-PERNELL,SENIOR HS,25-I072,715,145,21,09-12,(580) 788-2565,100 North Muse Ave,Elmore City,OK,73433,GARVIN,Jackie Sadler,jsadler@ecphs.k12.ok.us,35.578053,-97.511191
EMPIRE,EMPIRE ES,69-I021,105,307,26,PK-06,(580) 255-4150,276803 E. 1760 Road,Duncan,OK,73533,STEPHENS,Josh Skiles,jskiles@empireschools.org,35.48772,-97.499489
EMPIRE,EMPIRE JHS,69-I021,605,70,20,07-08,(580) 255-7515,276803 E. 1760 Road,Duncan,OK,73533,STEPHENS,Jodie Roberts,jroberts@empireschools.org,35.48772,-97.499489
EMPIRE,EMPIRE HS,69-I021,715,,19,-,(580) 255-7515,276803 E. 1760 Road,Duncan,OK,73533,STEPHENS,Jodie Roberts,jroberts@empireschool.org,35.48772,-97.499489
ENID,ADAMS ES,24-I057,105,346,35,KG-05,(580) 366-7600,2200 East Randolph Ave,Enid,OK,73701,GARFIELD,Beverly James,bjjames@enidk12.org,33.080693,-96.884767
ENID,CARVER EARLY CHILDHOOD CTR,24-I057,115,172,13,PK-PK,(580) 366-8601,815 South 5th St,Enid,OK,73701,GARFIELD,Chris Smith,cmsmith@enidk12.org,36.390427,-97.887049
ENID,COOLIDGE ES,24-I057,120,537,39,PK-05,(580) 366-7550,1515 East Ash Ave,Enid,OK,73701,GARFIELD,Jennifer Cruz,jrcruz@enidk12.org,33.080693,-96.884767
ENID,EISENHOWER ES,24-I057,125,161,14,PK-05,(580) 366-8100,1301 Fox Drive,Enid,OK,73703,GARFIELD,Polly Maxwell,pemaxwell@enidk12.org,35.234482,-97.39553
ENID,GARFIELD ES,24-I057,130,623,47,PK-05,(580) 366-7700,400 N. 7th St,Enid,OK,73701,GARFIELD,Jane Johnson,jmjohnson@enidk12.org,35.669318,-97.326244
ENID,GLENWOOD ES,24-I057,132,488,38,PK-05,(580) 366-7800,824 North Oakwood Road,Enid,OK,73703,GARFIELD,James Rainey,jbrainey@enidk12.org,35.513302,-97.526867
ENID,HAYES ES,24-I057,137,308,23,PK-05,(580) 366-7650,2102 Beverly Drive,Enid,OK,73703,GARFIELD,Lyntel Murphy,lamurphy@enidk12.org,35.524551,-97.504953
ENID,HOOVER ES,24-I057,140,329,30,PK-05,(580) 366-7350,2800 West Maine Ave,Enid,OK,73703,GARFIELD,Karen Heizer,kkheizer@enidk12.org,35.637714,-97.52029
ENID,MCKINLEY ES,24-I057,160,310,24,PK-05,(580) 366-7400,1701 West Broadway Ave,Enid,OK,73703,GARFIELD,Kay Kiner,klkiner@enidk12.org,35.749186,-95.369723
ENID,MONROE ES,24-I057,165,415,36,PK-05,(580) 366-7500,400 West Cottonwood Ave,Enid,OK,73701,GARFIELD,M. Scott Allen,msallen@enidk12.org,33.080693,-96.884767
ENID,PRAIRIE VIEW ES,24-I057,170,558,35,PK-05,(580) 366-8000,4700 W. Willow Road,Enid,OK,73703,GARFIELD,Clark Koepping,cskoepping@enidk12.org,32.996381,-97.193029
ENID,TAFT ES,24-I057,175,351,27,PK-05,(580) 366-7450,1002 Sequoyah Drive,Enid,OK,73703,GARFIELD,Peggy Kenaga,pakenaga@enidk12.org,35.6377,-97.563649
ENID,EMERSON MS,24-I057,505,421,38,06-08,(580) 366-7250,700 West Elm Ave,Enid,OK,73701,GARFIELD,Candice Wojciechowsky,cawojciechowsky@enidk12.org,33.080693,-96.884767
ENID,LONGFELLOW MS,24-I057,510,514,44,06-08,(580) 366-8200,900 East Broadway Ave,Enid,OK,73701,GARFIELD,Scott Fitzgerald,sdfitzgerald@enidk12.org,33.080693,-96.884767
ENID,DEWITT WALLER MS,24-I057,515,718,51,06-08,(580) 366-7900,2604 West Randolph Ave,Enid,OK,73703,GARFIELD,Adam Beauchamp,albeauchamp@enidk12.org,35.479365,-97.559259
ENID,ENID HS,24-I057,705,1827,155,09-12,(580) 366-8300,611 West Wabash Ave,Enid,OK,73701,GARFIELD,Jim Beierschmitt,jdbeierschmitt@enidk12.org,33.080693,-96.884767
EPIC ONE ON ONE CHARTER SCHOOL,EPIC ONE ON ONE CHARTER ES,55-Z001,970,2064,191,PK-05,(405) 749-4550,4101 Nw 122Nd St Suite B,Oklahoma City,OK,73120,OKLAHOMA,David Kincaid,david.kincaid@epiccharterschools.org,35.595173,-97.594279
EPIC ONE ON ONE CHARTER SCHOOL,EPIC ONE ON ONE CHARTER MS,55-Z001,971,1338,8,06-08,(405) 749-4550,4101 Nw 122Nd St Suite B,Oklahoma City,OK,73120,OKLAHOMA,Pam Beck,pam.beck@epiccharterschools.org,35.595173,-97.594279
EPIC ONE ON ONE CHARTER SCHOOL,EPIC ONE ON ONE CHARTER HS,55-Z001,972,2635,0,09-12,(405) 749-4550,4101 Nw 122Nd St Suite B,Oklahoma City,OK,73120,OKLAHOMA,Jennifer Banfield,jennifer.banfield@epiccharterschools.org,35.595173,-97.594279
EUFAULA,EUFAULA ES,49-I001,120,588,43,PK-05,(918) 689-2682,1717 W. Jm Bailey Hwy,Eufaula,OK,74432,MCINTOSH,Brenda Lewis,bglewis@eufaula.k12.ok.us,35.486788,-97.586997
EUFAULA,EUFAULA MS,49-I001,505,270,32,06-08,(918) 689-2711,1717 W. Jm Bailey Hwy,Eufaula,OK,74432,MCINTOSH,Chris Whelan,cjwhelan@eufaula.k12.ok.us,35.486788,-97.586997
EUFAULA,EUFAULA HS,49-I001,710,326,40,09-12,(918) 689-2556,1717 W. Jm Bailey Hwy,Eufaula,OK,74432,MCINTOSH,Michael Tamez,mtamez@eufaula.k12.ok.us,35.486788,-97.586997
FAIRLAND,FAIRLAND ES,58-I031,105,332,28,PK-05,(918) 676-3224,202 West Washington Ave,Fairland,OK,74343,OTTAWA,Angie Wade,awade@fairlandowls.com,35.520022,-97.506618
FAIRLAND,FAIRLAND MS,58-I031,510,126,23,06-08,(918) 676-3246,202 West Washington Ave,Fairland,OK,74343,OTTAWA,Jerry Johnson,jjohnson@fairlandowls.com,35.520022,-97.506618
FAIRLAND,FAIRLAND HS,58-I031,705,180,23,09-12,(918) 676-3246,202 West Washington Ave,Fairland,OK,74343,OTTAWA,Jerry Johnson,jjohnson@fairlandowls.com,35.520022,-97.506618
FAIRVIEW,CORNELSEN ES,44-I084,105,402,29,PK-05,(580) 227-2561,408 East Broadway,Fairview,OK,73737,MAJOR,Mark Vanmeter,mvm@auroraok.org,35.478985,-97.50522
FAIRVIEW,CHAMBERLAIN MS,44-I084,510,148,25,06-08,(580) 227-2555,408 E. Broadway,Fairview,OK,73737,MAJOR,Cheryl Hasty,cahasty@auroraok.org,35.425089,-97.514048
FAIRVIEW,FAIRVIEW HS,44-I084,705,182,28,09-12,(580) 227-4446,408 East Broadway,Fairview,OK,73737,MAJOR,Brian Hamar,hamar@auroraok.org,35.478985,-97.50522
FELT,FELT ES,13-I010,105,65,11,PK-08,(580) 426-2220,101 South Lincoln,Felt,OK,73937,CIMARRON,Christopher May,chris.may@feltps.org,35.477142,-97.500546
FELT,FELT HS,13-I010,705,28,7,09-12,(580) 426-2220,101 South Lincoln,Felt,OK,73937,CIMARRON,Christopher May,cmay.feltps@ptsi.net,35.477142,-97.500546
FLOWER MOUND,FLOWER MOUND PUBLIC SCHOOL,16-C048,105,333,20,PK-05,(580) 353-4088,2805 Southeast Flower Mound Road,Lawton,OK,73501,COMANCHE,Dax Trent,dtrent@flowermound.k12.ok.us,33.168575,-96.867012
FORT GIBSON,FORT GIBSON INTERMEDIATE ES,51-I003,105,353,28,03-05,(918) 478-2465,500 South Ross Ave,Fort Gibson,OK,74434,MUSKOGEE,Sherry Rybolt,s_rybolt@ftgibson.k12.ok.us,35.780951,-95.239579
FORT GIBSON,FORT GIBSON EARLY LRNING CTR,51-I003,110,487,50,PK-02,(918) 478-4841,500 South Ross Ave,Fort Gibson,OK,74434,MUSKOGEE,Shelly Holderby,s_holderby@ftgibson.k12.ok.us,35.780951,-95.239579
FORT GIBSON,FORT GIBSON MS,51-I003,505,412,39,06-08,(918) 478-2471,500 South Ross Ave,Fort Gibson,OK,74434,MUSKOGEE,Gregory Phares,g_phares@ftgibson.k12.ok.us,35.780951,-95.239579
FORT GIBSON,FORT GIBSON HS,51-I003,705,603,54,09-12,(918) 478-2452,500 South Ross Ave,Fort Gibson,OK,74434,MUSKOGEE,Gary Sparks,g_sparks@ftgibson.k12.ok.us,35.780951,-95.239579
FORT SUPPLY,FORT SUPPLY ES,77-I005,105,117,22,PK-08,(580) 766-2611,302 Reservation Road,Fort Supply,OK,73841,WOODWARD,Melva Little,melva@fortsupply.k12.ok.us,35.48522,-97.507144
FORT SUPPLY,FORT SUPPLY HS,77-I005,705,30,12,09-12,(580) 766-2611,302 Reservation Road,Fort Supply,OK,73841,WOODWARD,Melva Little,melva@fortsupply.k12.ok.us,35.48522,-97.507144
FREDERICK,FREDERICK ES,71-I158,105,470,37,PK-05,(580) 335-3513,817 N. 15Th,Frederick,OK,73542,TILLMAN,Kay Cabaniss,kcabaniss@frederickbombers.net,35.484836,-97.502008
FREDERICK,FREDERICK MS,71-I158,505,179,29,06-08,(580) 335-2014,817 N. 15Th,Frederick,OK,73542,TILLMAN,Jeremy Newton,jnewton@frederickbombers.net,35.484836,-97.502008
FREDERICK,FREDERICK HS,71-I158,710,214,30,09-12,(580) 335-5521,817 N. 15th,Frederick,OK,73542,TILLMAN,Randy Biggs,rbiggs@frederickbombers.net,35.484836,-97.502008
FRIEND,FRIEND PUBLIC SCHOOL,26-C037,105,259,19,PK-08,(405) 224-3822,1307 County Road 1350,Chickasha,OK,73018,GRADY,Alton Rawlins,amrawlins@friend.k12.ok.us,35.049833,-97.929043
FRINK-CHAMBERS,FRINK-CHAMBERS PUBLIC SCHOOL,61-C029,105,445,30,PK-08,(918) 423-2434,485 Frink Rd,Mcalester,OK,74501,PITTSBURG,Scott Burke,sburke@frink.k12.ok.us,35.470819,-97.161557
GEARY,GEARY ES,06-I080,105,233,22,PK-05,(405) 884-2442,221 S. Galena,Geary,OK,73040,BLAINE,Melissa Malloy,mmalloy@geary.k12.ok.us,35.469418,-97.505295
GEARY,GEARY MS,06-I080,500,73,19,06-08,(405) 884-2289,311 S. Blaine,Geary,OK,73040,BLAINE,Jim Shelton,jshelton@geary.k12.ok.us,35.484837,-97.506805
GEARY,GEARY HS,06-I080,715,99,23,09-12,(405) 884-2362,300 S. Blaine,Geary,OK,73040,BLAINE,Jim Shelton,jshelton@geary.k12.ok.us,35.480006,-97.507114
GERONIMO,GERONIMO ES,16-I004,105,195,14,PK-06,(580) 353-0882,800 West Main St,Geronimo,OK,73543,COMANCHE,Amy Latimer,alatimer@geronimo.k12.ok.us,35.467443,-97.526036
GERONIMO,GERONIMO MS,16-I004,505,48,10,07-08,(580) 355-3160,800 West Main St,Geronimo,OK,73543,COMANCHE,Heath Selcer,hselcer@geronimo.k12.ok.us,35.467443,-97.526036
GERONIMO,GERONIMO HS,16-I004,705,89,13,09-12,(580) 355-3160,800 West Main St,Geronimo,OK,73543,COMANCHE,Heath Selcer,hselcer@geronimo.k12.ok.us,35.467443,-97.526036
GLENCOE,GLENCOE ES,60-I101,105,248,21,PK-08,(580) 669-2254,201 East Lone Chimney,Glencoe,OK,74032,PAYNE,Tammy Lane,tlane@glencoe.k12.ok.us,35.482917,-97.500237
GLENCOE,GLENCOE HS,60-I101,705,107,15,09-12,(580) 669-2261,201 East Lone Chimney,Glencoe,OK,74032,PAYNE,Chad Speer,cspeer@glencoe.k12.ok.us,35.482917,-97.500237
GLOVER,GLOVER PUBLIC SCHOOL,48-C023,105,59,8,PK-08,(580) 420-3232,701 Lavender Rd.,Broken Bow,OK,74728,MCCURTAIN,Tanya Whisenhunt,twhisenhunt@freeriver.org,35.486743,-97.500479
GORE,GORE ES,68-I006,105,217,22,PK-05,(918) 489-5638,1200 North Hwy 10,Gore,OK,74435,SEQUOYAH,Tonya Pugh,pught@gorepublicschools.org,35.593686,-97.490246
GORE,GORE UPPER ES,68-I006,115,106,22,06-08,(918) 489-5587,1200 North Highway 10,Gore,OK,74435,SEQUOYAH,Beverly Robison,brobison@gorepublicschools.org,35.593686,-97.490246
GORE,GORE HS,68-I006,715,126,23,09-12,(918) 489-5587,1200 North Highway 10,Gore,OK,74435,SEQUOYAH,Beverly Robison,brobison@gorepublicschools.org,35.593686,-97.490246
GRAHAM-DUSTIN,GRAHAM ES,54-I054,105,51,15,05-08,(918) 652-8935,116118 Hwy 84,Weleetka,OK,74880,OKFUSKEE,Linda Riddle,lriddle@graham-dustin.k12.ok.us,35.479882,-97.505577
GRAHAM-DUSTIN,DUSTIN ES,54-I054,110,71,11,PK-04,(918) 652-8935,116118 Hwy 84,Weleetka,OK,74880,OKFUSKEE,C J Buesser,cbuesser@graham-dustin.k12.ok.us,35.479882,-97.505577
GRAHAM-DUSTIN,DUSTIN ES,54-I054,110,71,11,PK-04,(918) 652-8935,116118 Hwy 84,Weleetka,OK,74880,OKFUSKEE,Joe Cummings,jcummings@dustin.k12.ok.us,35.479882,-97.505577
GRAHAM-DUSTIN,GRAHAM HS,54-I054,705,64,12,09-12,(918) 652-8935,116118 Hwy 84,Weleetka,OK,74880,OKFUSKEE,Linda Riddle,lriddle@graham-dustin.k12.ok.us,35.479882,-97.505577
GRAND VIEW,GRAND VIEW PUBLIC SCHOOL,11-C034,105,630,59,PK-08,(918) 456-5131,15481 North Jarvis Road,Tahlequah,OK,74464,CHEROKEE,Allen Rule,arule@grandview.k12.ok.us,36.122299,-94.85896
GRAND VIEW,GRAND VIEW PUBLIC SCHOOL,11-C034,105,630,59,PK-08,(918) 456-5131,15481 North Jarvis Road,Tahlequah,OK,74464,CHEROKEE,Steve Gillman,sgillman@grandview.k12.ok.us,36.122299,-94.85896
GRANDVIEW,GRANDVIEW PUBLIC SCHOOL,69-C082,105,141,6,PK-08,(580) 439-2467,Box 277062 E. 1840 Rd.,Comanche,OK,73529,STEPHENS,Gary Wade,garywade@grandviewschool.k12.ok.us,35.487266,-97.50635
GREASY,GREASY PUBLIC SCHOOL,01-C032,105,90,11,PK-08,(918) 696-7768,Rural Route 1 Box 1589,Bunch,OK,74931,ADAIR,Michael Wolfe,michael.wolfe@greasy.k12.ok.us,35.481788,-97.498011
GREENVILLE,GREENVILLE PUBLIC SCHOOL,43-C003,105,135,11,PK-08,(580) 276-2968,4671 Wolfpac Rd,Marietta,OK,73448,LOVE,Jason Midkiff,jmidkiff@greenville.k12.ok.us,35.662719,-97.548168
GROVE,GROVE PUBLIC SCHOOL,63-C027,105,461,33,PK-08,(405) 275-7435,2800 North Bryan Ave,Shawnee,OK,74804,POTTAWATOMIE,Sheril Payne,spayne@grove.k12.ok.us,35.381185,-96.930349
GUTHRIE,FOGARTY ES,42-I001,110,570,43,02-03,(405) 282-5932,902 North Wentz St,Guthrie,OK,73044,LOGAN,Marsha Todd,marsha.todd@guthrieps.net,35.88708,-97.423585
GUTHRIE,COTTERAL ES,42-I001,120,423,28,PK-KG,(405) 282-5928,2001 West Noble Ave,Guthrie,OK,73044,LOGAN,Scot Graham,scot.graham@guthrieps.net,35.880423,-97.425732
GUTHRIE,GUTHRIE UPPER ES,42-I001,125,765,58,04-06,(405) 282-5924,702 North Crooks Drive,Guthrie,OK,73044,LOGAN,Susan Davison,susan.davison@guthrieps.net,35.878823,-97.425026
GUTHRIE,CENTRAL ES,42-I001,130,272,23,01-01,(405) 282-0352,321 East Noble Ave,Guthrie,OK,73044,LOGAN,Dani Watson,dani.watson@guthrieps.net,35.880414,-97.4251
GUTHRIE,GUTHRIE JHS,42-I001,610,495,49,07-08,(405) 282-5936,705 East Oklahoma Ave,Guthrie,OK,73044,LOGAN,Robbie Rainwater,robbie.rainwater@guthrieps.net,35.877697,-97.417103
GUTHRIE,GUTHRIE HS,42-I001,705,1012,75,09-12,(405) 282-5906,200 North Crooks Drive,Guthrie,OK,73044,LOGAN,Chris Legrande,chris.legrande@guthrieps.net,35.85948,-97.426943
GUYMON,ACADEMY ES,70-I008,105,416,34,03-04,(580) 338-4370,712 North Academy,Guymon,OK,73942,TEXAS,Jana Schreiner,jana.schreiner@guymontigers.com,35.484277,-97.500213
GUYMON,ACADEMY ES,70-I008,105,416,34,03-04,(580) 338-4370,712 North Academy,Guymon,OK,73942,TEXAS,Jana Schriener,jana.schreiner@guymontigers.com,35.484277,-97.500213
GUYMON,NORTHEAST ES,70-I008,115,173,16,KG-02,(580) 338-4380,220 Medical Drive,Guymon,OK,73942,TEXAS,Melissa Watson,melissa.watson@guymontigers.com,35.48522,-97.50782
GUYMON,HOMER LONG ES,70-I008,120,235,19,KG-02,(580) 338-4380,1500 N Beaver,Guymon,OK,73942,TEXAS,Meilssa Watson,melissa.watson@guymontigers.com,35.483911,-97.505541
GUYMON,HOMER LONG ES,70-I008,120,235,19,KG-02,(580) 338-4380,1500 N Beaver,Guymon,OK,73942,TEXAS,Melissa Watson,melissa.watson@guymontigers.com,35.483911,-97.505541
GUYMON,SALYER ES,70-I008,125,129,15,KG-02,(580) 338-0420,North 1st Ellison,Guymon,OK,73942,TEXAS,Loire Aubrey,loire.aubrey@guymontigers.com,35.466752,-97.534053
GUYMON,CARRIER ES,70-I008,130,170,12,PK-PK,(580) 338-0420,103 N Perkins,Guymon,OK,73942,TEXAS,Loire Aubrey,loire.aubrey@guymontigers.com,35.483865,-97.5082
GUYMON,NORTH PARK ES,70-I008,135,427,34,05-06,(580) 338-4390,1400 North Crumley,Guymon,OK,73942,TEXAS,Mark Strickland,mark.strickland@guymontigers.com,35.482766,-97.504003
GUYMON,PRAIRIE ES,70-I008,140,193,21,KG-02,(580) 338-0420,1501 E Hwy 3,Guymon,OK,73942,TEXAS,Loire Aubrey,loire.aubrey@guymontigers.com,35.422536,-97.543843
GUYMON,CENTRAL JHS,70-I008,610,427,45,07-08,(580) 338-4360,801 North Beaver,Guymon,OK,73942,TEXAS,Claudia Winters,claudia.winters@guymontigers.com,35.4746,-97.498505
GUYMON,GUYMON HS,70-I008,705,848,69,09-12,(580) 338-4350,1900 North James,Guymon,OK,73942,TEXAS,Randy Williams,randy.williams@guymontigers.com,35.48391,-97.509047
GYPSY,GYPSY PUBLIC SCHOOL,19-C012,105,82,11,PK-08,(918) 324-5365,30899 South 417th West Ave,Depew,OK,74028,CREEK,Rachel Collins,rcollins@gypsy.k12.ok.us,35.50367,-97.520636
HARMONY,HARMONY PUBLIC SCHOOL,03-C021,105,200,20,PK-08,(580) 889-3687,490 South Bentley Road,Atoka,OK,74525,ATOKA,Brian Walker,bwalker@harmonyps.org,34.367441,-96.140552
HARRAH,RUSSELL BABB ES,55-I007,105,288,30,04-05,(405) 454-6213,20901 Northeast Tenth St,Harrah,OK,73045,OKLAHOMA,Brad Hurley,bhurley@harrahschools.com,35.403445,-97.16093
HARRAH,CLARA REYNOLDS ES,55-I007,110,344,26,02-03,(405) 454-6201,755 Harrison St,Harrah,OK,73045,OKLAHOMA,Cheryl Hessman,chessman@harrahschools.com,35.475972,-97.167719
HARRAH,VIRGINIA SMITH ES,55-I007,115,451,27,PK-01,(405) 454-3638,20227 Northeast Tenth St,Harrah,OK,73045,OKLAHOMA,Doug Parker,dparker@harrahschools.com,35.482188,-97.172225
HARRAH,HARRAH MS,55-I007,505,453,42,06-08,(405) 454-2406,20665 Walker St,Harrah,OK,73045,OKLAHOMA,Dianna Hilburn,dhilburn@harrahschools.com,35.488687,-97.170539
HARRAH,HARRAH HS,55-I007,705,598,54,09-12,(405) 454-2416,20370 Elm St,Harrah,OK,73045,OKLAHOMA,Kenneth Riddle,kriddle@harrahschools.com,35.547248,-97.411106
HARTSHORNE,HARTSHORNE ES,61-I001,105,365,29,PK-05,(918) 297-2345,821 Arapahoe St,Hartshorne,OK,74547,PITTSBURG,Brian Akins,bakins@hartshorne.k12.ok.us,35.621879,-97.527719
HARTSHORNE,HARTSHORNE MS,61-I001,510,181,29,06-08,(918) 297-2433,520 South Fifth St,Hartshorne,OK,74547,PITTSBURG,Jason Lindley,jlindley@hartshorne.k12.ok.us,35.429113,-97.502634
HARTSHORNE,HARTSHORNE HS,61-I001,705,256,31,09-12,(918) 297-2536,520 South Fifth St,Hartshorne,OK,74547,PITTSBURG,Mike Reddick,mreddick@hartshorne.k12.ok.us,35.429113,-97.502634
HASKELL,MARY WHITE ES,51-I002,110,396,29,PK-05,(918) 482-1402,408 West Franklin,Haskell,OK,74436,MUSKOGEE,Scott Mccullah,smccullah@haskellps.org,35.486311,-97.507483
HASKELL,HASKELL MS,51-I002,505,196,32,06-08,(918) 482-5221,900 North Ohio,Haskell,OK,74436,MUSKOGEE,Kurt Scullawl,kscullawl@haskellps.org,35.476585,-97.503587
HASKELL,HASKELL HS,51-I002,715,244,28,09-12,(918) 482-5223,900 North Ohio,Haskell,OK,74436,MUSKOGEE,Kurt Scullawl,kscullawl@haskellps.org,35.476585,-97.503587
HAWORTH,HAWORTH ES,48-I006,105,278,24,PK-05,(580) 245-1406,300 N. Maple St,Haworth,OK,74740,MCCURTAIN,Jeannie Gail Sylvia,gsylvia@haworth.k12.ok.us,35.480006,-97.507114
HAWORTH,HAWORTH MS,48-I006,510,127,24,06-08,(580) 245-1406,300 N. Maple St,Haworth,OK,74740,MCCURTAIN,,,35.480006,-97.507114
HAWORTH,HAWORTH MS,48-I006,510,127,24,06-08,(580) 245-1406,300 N. Maple St,Haworth,OK,74740,MCCURTAIN,Brandy Wall,bwall@haworth.k12.ok.us,35.480006,-97.507114
HAWORTH,HAWORTH HS,48-I006,705,178,28,09-12,(580) 245-1406,300 N. Maple St,Haworth,OK,74740,MCCURTAIN,Brandy Wall,bwall@haworth.k12.ok.us,35.480006,-97.507114
HAYWOOD,HAYWOOD PUBLIC SCHOOL,61-C088,105,131,15,PK-08,(918) 423-6265,11461 West State Hwy 31,Mcalester,OK,74501,PITTSBURG,Roger Smith,rsmith@haywood.k12.ok.us,34.931137,-95.740312
HENNESSEY,HENNESSEY LOWER ES,37-I016,105,417,35,PK-04,(405) 853-4305,130 North Mitchell Ave,Hennessey,OK,73742,KINGFISHER,Barry Crosswhite,bcrosswhite@hps.k12.ok.us,36.110707,-97.897193
HENNESSEY,HENNESSEY UPPER ES,37-I016,110,245,30,05-08,(405) 853-4303,120 North Mitchell Ave,Hennessey,OK,73742,KINGFISHER,Stacey Schovanec,staceyschovanec@hps.k12.ok.us,36.110707,-97.897193
HENNESSEY,HENNESSEY HS,37-I016,705,262,32,09-12,(405) 853-4394,707 East Oklahoma St,Hennessey,OK,73742,KINGFISHER,Brady Barnes,bbarnes@hps.k12.ok.us,36.110707,-97.897193
HENRYETTA,HENRYETTA ES,56-I002,105,687,48,PK-05,(918) 652-6587,1801 Troy Aikman Dr,Henryetta,OK,74437,OKMULGEE,Kelly Furer,kfurer@henryetta.k12.ok.us,35.445566,-96.006232
HENRYETTA,HENRYETTA MS,56-I002,505,258,30,06-08,(918) 652-6578,1801 Troy Aikman Dr,Henryetta,OK,74437,OKMULGEE,Brad Wion,bradw@henryetta.k12.ok.us,35.445566,-96.006232
HENRYETTA,HENRYETTA HS,56-I002,705,307,32,09-12,(918) 652-6571,1801 Troy Aikman Dr,Henryetta,OK,74437,OKMULGEE,Scott Bein,sbein@henryetta.k12.ok.us,35.445566,-96.006232
HILLDALE,HILLDALE LOWER ES,51-I029,105,535,37,PK-02,(918) 683-9167,500 East Smith Ferry Road,Muskogee,OK,74403,MUSKOGEE,Kair Ridenhour,kridenhour@hilldaleps.org,35.697891,-95.366507
HILLDALE,HILLDALE UPPER ES,51-I029,110,398,33,03-05,(918) 683-1101,500 East Smith Ferry Road,Muskogee,OK,74403,MUSKOGEE,Kair Ridenhour,kridenhour@hilldaleps.org,35.697891,-95.366507
HILLDALE,HILLDALE MS,51-I029,505,414,37,06-08,(918) 683-0763,500 East Smith Ferry Road,Muskogee,OK,74403,MUSKOGEE,Darren Riddle,driddle@hilldaleps.org,35.697891,-95.366507
HILLDALE,HILLDALE HS,51-I029,705,525,48,09-12,(918) 683-3253,500 East Smith Ferry Road,Muskogee,OK,74403,MUSKOGEE,Deborah Tennison,dtennison@hilldaleps.org,35.697891,-95.366507
HOLDENVILLE,ETHEL REED ES,32-I035,120,455,30,PK-03,(405) 379-6618,210 Grimes St,Holdenville,OK,74848,HUGHES,Danielle Patterson,dpatterson@holdenville.k12.ok.us,35.48324,-97.508197
HOLDENVILLE,THOMAS IES,32-I035,130,384,45,04-08,(405) 379-6661,210 Grimes St,Holdenville,OK,74848,HUGHES,Mark Turner,markturner@holdenville.k12.ok.us,35.48324,-97.508197
HOLDENVILLE,HOLDENVILLE HS,32-I035,705,283,37,09-12,(405) 379-3387,210 Grimes St,Holdenville,OK,74848,HUGHES,Travis Graham,tgraham@holdenville.k12.ok.us,35.48324,-97.508197
HOLLY CREEK,HOLLY CREEK PUBLIC SCHOOL,48-C072,105,225,21,PK-08,(580) 420-6968,401 Holly Creek Road,Broken Bow,OK,74728,MCCURTAIN,Harvey Brumley,hbrumley@hollycreek.org,34.019199,-94.744349
HOMINY,HORACE MANN ES,57-I038,105,219,19,01-05,(918) 885-6255,200 South Pettit Ave,Hominy,OK,74035,OSAGE,Angel Supernaw,asupernaw@hominy.k12.ok.us,35.48428,-97.508668
HOMINY,HOMINY EARLY CHILDHOOD CENTER,57-I038,110,81,5,PK-KG,(918) 885-6813,200 South Pettit Ave,Hominy,OK,74035,OSAGE,Kelly Dyer,kdyer@hominy.k12.ok.us,35.48428,-97.508668
HOMINY,HOMINY MS,57-I038,505,138,18,06-08,(918) 885-6253,200 South Pettit Ave,Hominy,OK,74035,OSAGE,Scott Harmon,sharmon@hominy.k12.ok.us,35.48428,-97.508668
HOMINY,HOMINY HS,57-I038,705,163,20,09-12,(918) 885-2141,200 South Pettit Ave,Hominy,OK,74035,OSAGE,Doyle Edwards,ed@hominy.k12.ok.us,35.48428,-97.508668
HUGO,HUGO ES,12-I039,135,462,34,PK-03,(580) 326-8373,208 N 2Nd St,Hugo,OK,74743,CHOCTAW,Nancy Welch,nwelch@hugoschools.com,35.141366,-97.396381
HUGO,HUGO INTERMEDIATE,12-I039,140,171,15,04-05,(580) 326-0106,208 N 2Nd St,Hugo,OK,74743,CHOCTAW,Vivian Shanklin,vshanklin@hugoschools.com,35.141366,-97.396381
HUGO,HUGO MS,12-I039,510,220,28,06-08,(580) 326-3365,208 N 2Nd St,Hugo,OK,74743,CHOCTAW,Anna Pate,apate@hugoschools.com,35.141366,-97.396381
HUGO,HUGO HS,12-I039,705,314,27,09-12,(580) 326-9648,208 N 2Nd St,Hugo,OK,74743,CHOCTAW,Earl Dalke,edalke@hugoschools.com,35.141366,-97.396381
HYDRO-EAKLY,HYDRO-EAKLY ES,08-I011,105,239,22,PK-05,(405) 663-2619,407 East Seventh St,Hydro,OK,73048,CADDO,Jeremy Tharp,jtharp@hydroeakly.k12.ok.us,35.484839,-97.505321
HYDRO-EAKLY,HYDRO-EAKLY MS,08-I011,505,96,19,06-08,(405) 663-2246,407 East Seventh St,Hydro,OK,73048,CADDO,Jeremy Bussey,jbussey@hydroeakly.k12.ok.us,35.484839,-97.505321
HYDRO-EAKLY,HYDRO-EAKLY HS,08-I011,715,118,20,09-12,(405) 663-2246,407 East Seventh St,Hydro,OK,73048,CADDO,Jeremy Bussey,jbussey@hydroeakly.k12.ok.us,35.484839,-97.505321
IDABEL,CENTRAL ES,48-I005,110,322,31,02-05,(580) 286-5346,200 Ne Ave C,Idabel,OK,74745,MCCURTAIN,Nancy Copeland,ncopeland@idabelps.org,35.220115,-97.337756
IDABEL,IDABEL PRIMARY SOUTH ES,48-I005,120,290,20,PK-01,(580) 286-4400,200 Ne Ave C,Idabel,OK,74745,MCCURTAIN,Terri Bastible,tbastible@idabelps.org,35.220115,-97.337756
IDABEL,IDABEL MS,48-I005,505,231,34,06-08,(580) 286-6558,200 Ne Ave C,Idabel,OK,74745,MCCURTAIN,Laura Bullock,lbullock@idabelps.org,35.220115,-97.337756
IDABEL,IDABEL HS,48-I005,710,407,44,09-12,(580) 286-7693,200 Ne Ave C,Idabel,OK,74745,MCCURTAIN,Alan Bryant,abryant@idabelps.org,35.220115,-97.337756
INDIAHOMA,INDIAHOMA ES,16-I002,105,148,21,PK-08,(580) 246-3333,307 Chebahtah,Indiahoma,OK,73552,COMANCHE,Greg Ellis,greg.ellis@indiahomaps.org,34.61988081182,-98.7520996220926
INDIAHOMA,INDIAHOMA HS,16-I002,705,63,13,09-12,(580) 246-3333,307 Chebahtah,Indiahoma,OK,73552,COMANCHE,Greg Ellis,gellis@indiahoma.k12.ok.us,34.61988081182,-98.7520996220926
JENKS,JENKS EAST ES,72-I005,110,2030,163,PK-04,(918) 299-4411,205 East B St,Jenks,OK,74037,TULSA,Ryan Glaze,ryan.glaze@jenksps.org,36.026262,-95.969154
JENKS,JENKS WEST ES,72-I005,115,,154,-,(918) 299-4411,205 East B St,Jenks,OK,74037,TULSA,Suzanne Lair,suzanne.lair@jenksps.org,36.026262,-95.969154
JENKS,SOUTHEAST ES,72-I005,120,864,67,PK-04,(918) 299-4411,205 East B St,Jenks,OK,74037,TULSA,Lindy Risenhoover,lindy.risenhoover@jenksps.org,36.026262,-95.969154
JENKS,JENKS WEST INTERMEDIATE ES,72-I005,125,710,58,05-06,(918) 299-4415,205 East B St,Jenks,OK,74037,TULSA,Michelle Sumner,michele.sumner@jenksps.org,36.026262,-95.969154
JENKS,JENKS EAST INTERMEDIATE ES,72-I005,130,977,89,05-06,(918) 299-4411,205 East B St,Jenks,OK,74037,TULSA,Linda Reid,linda.reid@jenksps.org,36.026262,-95.969154
JENKS,JENKS MS,72-I005,505,1635,131,07-08,(918) 299-4411,205 East B St,Jenks,OK,74037,TULSA,Nick Brown,nick.brown@jenksps.org,36.026262,-95.969154
JENKS,JENKS HS,72-I005,705,3334,237,09-12,(918) 299-4411,205 East B St,Jenks,OK,74037,TULSA,Mike Means,mike.means@jenksps.org,36.026262,-95.969154
JENNINGS,JENNINGS PUBLIC SCHOOL,59-C002,105,216,16,PK-08,(918) 757-2536,600 North Oak St,Jennings,OK,74038,PAWNEE,Chris Ballenger,cballenger@jennings.k12.ok.us,35.191771,-94.409405
JONES,JONES ES,55-I009,105,532,30,PK-05,(405) 399-9118,13145 Montana St,Jones,OK,73049,OKLAHOMA,Cindy Harrison,charrison@jonesel.k12.ok.us,35.558267,-97.298957
JONES,JONES MS,55-I009,505,275,28,06-08,(405) 399-9114,16011 East Wilshire Blvd,Jones,OK,73049,OKLAHOMA,Adam Mcphail,amcphail@jonesms.k12.ok.us,35.551441,-97.484321
JONES,JONES HS,55-I009,705,329,31,09-12,(405) 399-9122,304 Dr. Lee Simmons,Jones,OK,73049,OKLAHOMA,Curtis Moses,cmoses@joneshs.k12.ok.us,37.037144,-96.874534
JUSTICE,JUSTICE PUBLIC SCHOOL,67-C054,105,187,17,PK-08,(405) 257-2962,36507 Ew 1310,Wewoka,OK,74884,SEMINOLE,Chris Bryan,cbryan@justice.k12.ok.us,35.481342,-97.507317
JUSTUS-TIAWAH,JUSTUS-TIAWAH PUBLIC SCHOOL,66-C009,105,519,40,PK-08,(918) 341-3626,14902 East School Road,Claremore,OK,74019,ROGERS,Kim Larmon,klarmon@justustiawah.com,36.264524,-95.701929
KANSAS,KANSAS ES,21-I003,105,396,28,PK-05,(918) 868-2427,275 W Main,Kansas,OK,74347,DELAWARE,Gina Glass,gina@kansasps.com,35.479939,-97.505701
KANSAS,KANSAS HS,21-I003,715,299,36,09-12,(918) 868-3308,700 N Wood Ave,Kansas,OK,74347,DELAWARE,Phil Isom,phili@kansasps.com,35.486165,-97.500568
KENWOOD,KENWOOD PUBLIC SCHOOL,21-C030,105,101,5,KG-08,(918) 434-5799,48625 South 502 Road,Salina,OK,74365,DELAWARE,Billy Taylor,billyt@sstelco.com,35.479048,-97.504034
KEOTA,KEOTA ES,31-I043,105,305,32,PK-08,(918) 966-3141,110 Northeast 6th St,Keota,OK,74941,HASKELL,Twylah Morris,tmorris@keota.k12.ok.us,35.343648,-97.48598
KEOTA,KEOTA HS,31-I043,705,118,20,09-12,(918) 966-3950,110 Northeast 6th St,Keota,OK,74941,HASKELL,Richard Reed,rreed@keota.k12.ok.us,35.343648,-97.48598
KEYS,KEYS ES,11-I006,105,481,43,PK-08,(918) 456-4501,19061 East 840 Road,Park Hill,OK,74451,CHEROKEE,Tami Woods,twoods@keys.k12.ok.us,35.821603,-94.932455
KEYS,KEYS HS,11-I006,705,332,27,09-12,(918) 458-1835,26622 South 520 Road,Park Hill,OK,74451,CHEROKEE,Steven Goss,sgoss@keys.k12.ok.us,35.423394,-97.561087
KEYSTONE,KEYSTONE PUBLIC SCHOOL,72-C015,105,297,25,PK-08,(918) 363-8298,23810 West Highway 51,Sand Springs,OK,74063,TULSA,Craig Garner,cgarner@keystone.k12.ok.us,36.093637,-96.270653
KIEFER,KIEFER ES,19-I018,105,416,33,PK-06,(918) 321-5444,4600 West 151st St,Kiefer,OK,74041,CREEK,Brent Weaver,bweaver@kiefer.k12.ok.us,35.608807,-97.604501
KIEFER,RONGEY MS,19-I018,505,98,21,07-08,(918) 321-3421,4600 West 151st St,Kiefer,OK,74041,CREEK,Cory Campbell,ccampbell@kiefer.k12.ok.us,35.608807,-97.604501
KIEFER,KIEFER HS,19-I018,705,217,25,09-12,(918) 321-3533,4600 West 151st St South,Kiefer,OK,74041,CREEK,Sabrina Shaw,sshaw@kiefer.k12.ok.us,35.608807,-97.604501
KILDARE,KILDARE PUBLIC SCHOOL,36-C050,105,78,8,PK-06,(580) 362-2811,1265 Church St,Ponca City,OK,74604,KAY,Bruce Shelley,bshelley@kildare.k12.ok.us,35.488305,-97.161895
KINGFISHER,GILMOUR ES,37-I007,110,445,31,PK-02,(405) 375-4080,1400 South Oak St,Kingfisher,OK,73750,KINGFISHER,Melissa Slezickey,mslezickey@kingfisher.k12.ok.us,35.512979,-96.571833
KINGFISHER,HERITAGE ELEMENTARY,37-I007,120,203,17,03-04,(405) 375-3018,600 South Ninth St,Kingfisher,OK,73750,KINGFISHER,Kathy Kadavy,kkadavy@kingfisher.k12.ok.us,35.485215,-97.502779
KINGFISHER,KINGFISHER MS,37-I007,505,398,39,05-08,(405) 375-6607,601 South 13th St,Kingfisher,OK,73750,KINGFISHER,Keith Campbell,kcampbell@kingfisher.k12.ok.us,35.482773,-97.502978
KINGFISHER,KINGFISHER HS,37-I007,705,409,41,09-12,(405) 375-4191,1500 South 13th St,Kingfisher,OK,73750,KINGFISHER,Todd Overstreet,toverstreet@kingfisher.k12.ok.us,36.319822,-94.134785
KONAWA,KONAWA ES,67-I004,105,336,28,PK-05,(580) 925-3118,701 West South St,Konawa,OK,74849,SEMINOLE,Kim Wilson,wilsonk@konawa.k12.ok.us,35.486743,-97.500479
KONAWA,KONAWA MS,67-I004,510,165,21,06-08,(580) 925-3221,701 West South St,Konawa,OK,74849,SEMINOLE,Sean Walker,seanwalker@konawa.k12.ok.us,35.486743,-97.500479
KONAWA,KONAWA HS,67-I004,705,222,24,09-12,(580) 925-3221,701 West South St,Konawa,OK,74849,SEMINOLE,Karis Reavis,karisreavis@konawa.k12.ok.us,35.486743,-97.500479
KREMLIN-HILLSDALE,KREMLIN-HILLSDALE ES,24-I018,105,238,20,PK-08,(580) 874-2283,605 Fifth,Kremlin,OK,73753,GARFIELD,Brad Hawkins,hawkinsb@kremlin.k12.ok.us,35.47564,-97.50115
KREMLIN-HILLSDALE,KREMLIN-HILLSDALE HS,24-I018,705,79,16,09-12,(580) 874-2281,705 Fifth,Kremlin,OK,73753,GARFIELD,Jeremy Brashears,brashearsj@kremlin.k12.ok.us,35.483888,-97.500557
LANE,LANE PUBLIC SCHOOL,03-C022,105,257,22,PK-08,(580) 889-2743,601 W. Mcgee Creek Rd,Lane,OK,74555,ATOKA,Debra Patton,dpatton@lane.k12.ok.us,35.482773,-97.502978
LANGSTON HUGHES ACAD ARTS-TECH,LANGSTON HUGHES ACAD ARTS-TECH,72-G005,975,85,9,09-09,(918) 728-8588,5424 N Madison Ave,Tulsa,OK,74126,TULSA,Rodney Clark,rclark@lhatt.com,35.415669,-97.42512
LATTA,LATTA ES,62-I024,105,479,35,PK-05,(580) 332-7669,13925 County Road 1560,Ada,OK,74820,PONTOTOC,Phillip Shivers,pshivers@latta.k12.ok.us,34.772999,-96.675998
LATTA,LATTA MS,62-I024,510,184,26,06-08,(580) 332-8180,13925 County Road 1560,Ada,OK,74820,PONTOTOC,Terry Painter,tpainter@latta.k12.ok.us,34.772999,-96.675998
LATTA,LATTA HS,62-I024,705,213,33,09-12,(580) 332-3300,13925 County Road 1560,Ada,OK,74820,PONTOTOC,Stan Cochran,scochran@latta.k12.ok.us,34.772999,-96.675998
LAWTON,ADAMS ES,16-I008,105,,17,-,(580) 353-7983,3501 Northwest Ferris Ave,Lawton,OK,73505,COMANCHE,Lisa Bell,labell@lawtonps.org,34.62374,-98.42389
LAWTON,ALMOR WEST ES,16-I008,106,329,21,PK-05,(580) 536-6006,6902 Southwest Delta Ave,Lawton,OK,73505,COMANCHE,Stan Melby,smelby@lawtonps.org,34.607945,-98.422714
LAWTON,CARRIAGE HILLS ES,16-I008,108,357,24,PK-05,(580) 248-6161,215 Southeast Warwick Way,Lawton,OK,73501,COMANCHE,Cheryl Scammahorn,cadams@lawtonps.org,33.168575,-96.867012
LAWTON,CLEVELAND ES,16-I008,110,395,28,PK-05,(580) 353-8861,1202 Southwest 27th St,Lawton,OK,73505,COMANCHE,Calvin Prince,cprince@lawtonps.org,34.607945,-98.422714
LAWTON,CROSBY PARK ES,16-I008,114,292,24,KG-05,(580) 353-7107,1602 Northwest Horton Blvd,Lawton,OK,73505,COMANCHE,Dana Moore,dmoore@lawtonps.org,34.62374,-98.42389
LAWTON,EDISON ES,16-I008,122,436,33,KG-05,(580) 536-4223,5801 Northwest Columbia Ave,Lawton,OK,73505,COMANCHE,Donna Catlin,dcatlin@lawtonps.org,34.62374,-98.42389
LAWTON,EISENHOWER ES,16-I008,125,324,24,KG-05,(580) 355-4599,315 Southwest 52Nd St,Lawton,OK,73505,COMANCHE,Tamie Barrett,tbarrett@lawtonps.org,34.607945,-98.422714
LAWTON,RIDGECREST ES,16-I008,140,520,39,KG-05,(580) 355-6033,1614 Northwest 47th St,Lawton,OK,73505,COMANCHE,Ora Fitzgerald,ofitzgerald@lawtonps.org,34.62374,-98.42389
LAWTON,HUGH BISH ES,16-I008,148,344,25,KG-05,(580) 248-2244,5611 Northwest Alan A Dale Lane,Lawton,OK,73505,COMANCHE,Sherry Havron,shavron@lawtonps.org,34.62374,-98.42389
LAWTON,BEGINNINGS ACADEMY,16-I008,160,384,19,PK-PK,(580) 585-6407,501 Northwest Woodridge Drive,Lawton,OK,73507,COMANCHE,Rhonda Weber,rweber@lawtonps.org,35.484837,-97.50406
LAWTON,LINCOLN ES,16-I008,165,387,28,PK-05,(580) 355-4799,601 Southwest Park Ave,Lawton,OK,73501,COMANCHE,David Dehaven,ddehaven@lawtonps.org,34.606878,-98.345674
LAWTON,PAT HENRY ES,16-I008,168,530,46,KG-05,(580) 355-2617,1401 Northwest Bessie Ave,Lawton,OK,73507,COMANCHE,Karen Cooksey,kcooksey@lawtonps.org,35.482766,-97.504003
LAWTON,PIONEER PARK ES,16-I008,173,404,26,KG-05,(580) 355-5844,3005 Northeast Angus Place,Lawton,OK,73507,COMANCHE,Sally Greenlee,sgreenlee@lawtonps.org,35.490738,-97.568266
LAWTON,SULLIVAN VILLAGE ES,16-I008,183,,29,-,(580) 355-0800,3802 Southeast Elmhurst Lane,Lawton,OK,73501,COMANCHE,Brenda Breeze,bbreeze@lawtonps.org,33.168575,-96.867012
LAWTON,WASHINGTON ES,16-I008,195,227,18,PK-05,(580) 353-6299,805 Northwest Columbia Ave,Lawton,OK,73507,COMANCHE,Traci Newell,tnewell@lawtonps.org,34.612678,-98.42594
LAWTON,LEARNING TREE ACADEMY,16-I008,200,194,16,PK-PK,(580) 355-6197,1908 Northwest 38th St,Lawton,OK,73505,COMANCHE,Rhonda Weber,rweber@lawtonps.org,34.62374,-98.42389
LAWTON,WHITTIER ES,16-I008,205,317,19,KG-05,(580) 355-5238,1115 Northwest Laird Ave,Lawton,OK,73507,COMANCHE,Melanie Nungesser,mnungesser@lawtonps.org,35.530478,-97.530657
LAWTON,WOODLAND HILLS ES,16-I008,220,480,32,PK-05,(580) 536-7991,405 Northwest Woodland Drive,Lawton,OK,73505,COMANCHE,Lisa Carson,lcarson@lawtonps.org,34.62374,-98.42389
LAWTON,MACARTHUR MS,16-I008,530,788,70,06-08,(580) 353-5111,510 Northeast 45th St,Lawton,OK,73507,COMANCHE,Regina Lambert,rlambert@lawtonps.org,35.517283,-97.484584
LAWTON,CENTRAL MS,16-I008,535,736,79,06-08,(580) 355-8544,1201 Northwest Fort Sill Blvd,Lawton,OK,73507,COMANCHE,Blake Thomas,bthomas@lawtonps.org,34.776939,-98.604759
LAWTON,TOMLINSON MS,16-I008,540,709,69,06-08,(580) 585-6416,702 Northwest Homestead Drive,Lawton,OK,73505,COMANCHE,Eddie Williams,ewilliams@lawtonps.org,34.62374,-98.42389
LAWTON,EISENHOWER MS,16-I008,545,858,73,06-08,(580) 353-1040,5702 West Gore Blvd,Lawton,OK,73505,COMANCHE,Beverly Mattingly,bmattingly@lawtonps.org,34.60486,-98.434123
LAWTON,EISENHOWER HS,16-I008,705,1249,95,09-12,(580) 355-9144,5202 West Gore Blvd,Lawton,OK,73505,COMANCHE,Charlotte Oates,coates@lawtonps.org,34.60486,-98.434123
LAWTON,LAWTON HS,16-I008,710,1734,137,09-12,(580) 355-5170,601 Northwest Fort Sill Blvd,Lawton,OK,73507,COMANCHE,Regina Deloach,rdeloach@lawtonps.org,34.620999,-98.405123
LAWTON,MACARTHUR HS,16-I008,715,1124,81,09-12,(580) 355-5230,4402 East Gore Blvd,Lawton,OK,73501,COMANCHE,Rod Elam,relam@lawtonps.org,34.606878,-98.345674
LEACH,LEACH PUBLIC SCHOOL,21-C014,105,145,14,PK-08,(918) 868-2277,55979 S. 530 Rd.,Rose,OK,74364,DELAWARE,Andrea Sealock,asealock@leachschool.net,35.409196,-97.523201
LEXINGTON,LEXINGTON ES,14-I057,105,490,40,PK-04,(405) 527-7236,420 Northeast Fourth St,Lexington,OK,73051,CLEVELAND,Julie Malone,jmalone@lexington.k12.ok.us,35.482061,-97.504741
LEXINGTON,LEXINGTON INTERMEDIATE SCHOOL,14-I057,110,140,21,05-06,(405) 527-7236,420 Northeast Fourth St,Lexington,OK,73051,CLEVELAND,Julie Malone,jmalone@lexington.k12.ok.us,35.482061,-97.504741
LEXINGTON,LEXINGTON HS,14-I057,705,313,34,09-12,(405) 527-7236,801 East Broadway,Lexington,OK,73051,CLEVELAND,David Mclain,dmcclain@lexington.k12.ok.su,35.475224,-97.514601
LIBERTY,LIBERTY ES,72-I014,105,363,37,PK-08,(918) 366-8311,2727 East 201st St South,Mounds,OK,74047,TULSA,Sandra Cross,scross@liberty.k12.ok.us,35.575855,-97.464128
LIBERTY,LIBERTY HS,72-I014,705,177,25,09-12,(918) 366-8784,2727 East 201st St South,Mounds,OK,74047,TULSA,Matthew Sweet,msweet@liberty.k12.ok.us,35.575855,-97.464128
LINDSAY,LINDSAY ES,25-I009,105,665,50,PK-05,(405) 756-3134,402 Sw 8Th,Lindsay,OK,73052,GARVIN,Nicole Bauman,nbauman@lindsay.k12.ok.us,35.479686,-97.500029
LINDSAY,LINDSAY MS,25-I009,505,262,35,06-08,(405) 756-3133,805 West Creek,Lindsay,OK,73052,GARVIN,Tommy Ferguson,tferguson@lindsay.k12.ok.us,35.479686,-97.500029
LINDSAY,LINDSAY HS,25-I009,705,333,37,09-12,(405) 756-3132,302 Sw 8Th,Lindsay,OK,73052,GARVIN,Chuck Karpe,ckarpe@lindsay.k12.ok.us,35.479686,-97.500029
LITTLE AXE,LITTLE AXE ES,14-I070,105,641,43,PK-05,(405) 447-0913,2000 168th Ave Northeast,Norman,OK,73026,CLEVELAND,Brian Tupper,brian.tupper@littleaxepss.org,35.485677,-97.54607
LITTLE AXE,LITTLE AXE MS,14-I070,505,288,32,06-08,(405) 329-2156,2000 168th Ave Northeast,Norman,OK,73026,CLEVELAND,Dalton Griffin,dalton.griffin@littleaxeps.org,35.485677,-97.54607
LITTLE AXE,LITTLE AXE HS,14-I070,715,351,33,09-12,(405) 329-1612,2000 168th Ave Northeast,Norman,OK,73026,CLEVELAND,Barry Thomas,carrie.tucker@littleaxeps.org,35.485677,-97.54607
LOMEGA,LOMEGA ES,37-I003,105,204,20,PK-08,(405) 729-4251,409 Main St.,Loyal,OK,73756,KINGFISHER,Roger Mendell,rogerm@lomega.k12.ok.us,35.656048,-97.489071
LOMEGA,LOMEGA HS,37-I003,705,56,12,09-12,(405) 729-4281,18319 N 2700 Rd,Omega,OK,73764,KINGFISHER,Karen Castonguay,lomegahs@lomega.k12.ok.us,35.658099,-97.551981
LONE STAR,LONE STAR PUBLIC SCHOOL,19-C008,105,904,61,PK-08,(918) 224-0201,2945 S Hickory,Sapulpa,OK,74066,CREEK,Justin Whitehouse,jwhitehouse@lonestar.k12.ok.us,35.992423,-96.097381
LOOKEBA SICKLES,LOOKEBA-SICKLES ES,08-I012,105,179,18,PK-08,(405) 457-6300,307 West Sickles Ave.,Lookeba,OK,73053,CADDO,Mike Davis,mdavis@lookeba.k12.ok.us,35.484837,-97.506974
LOOKEBA SICKLES,LOOKEBA-SICKLES HS,08-I012,705,,11,-,(405) 457-6621,10108 Cr 1150,Lookeba,OK,73053,CADDO,Chuck Karpe,ckarpe@lookeba.k12.ok.us,35.47413,-97.501902
LOWREY,LOWREY PUBLIC SCHOOL,11-C010,105,138,13,PK-08,(918) 456-4053,21132 East 640 Road,Tahlequah,OK,74464,CHEROKEE,Bryan Hix,bhix@lowrey.k12.ok.us,35.479566,-97.507912
LUKFATA,LUKFATA PUBLIC SCHOOL,48-C009,105,373,27,PK-08,(580) 584-6834,1685 Old Broken Bow Hwy,Broken Bow,OK,74728,MCCURTAIN,Kurt Neal,kneal@lukfata.org,34.019199,-94.744349
MACOMB,MACOMB ES,63-I004,110,194,21,PK-08,(405) 598-2716,36591 State Highway 59B,Macomb,OK,74852,POTTAWATOMIE,Janet Turner,jturner@macomb.k12.ok.us,33.0097,-96.541676
MACOMB,MACOMB HS,63-I004,705,103,15,09-12,(405) 598-5420,36591 State Highway 59B,Macomb,OK,74852,POTTAWATOMIE,Scott Frazier,sfrazier@macomb.k12.ok.us,33.0097,-96.541676
MADILL,MADILL ES,45-I002,105,886,61,PK-05,(580) 795-3680,601 W. Mcarthur St,Madill,OK,73446,MARSHALL,Lynda Mcdaniel,lmcdaniel@madillok.com,35.482773,-97.502978
MADILL,MADILL MS,45-I002,505,350,38,06-08,(580) 795-7373,601 West Mcarthur St,Madill,OK,73446,MARSHALL,Tena Houser,thouser@madillok.com,35.482773,-97.502978
MADILL,MADILL HS,45-I002,705,499,47,09-12,(580) 795-3339,601 West Mcarthur,Madill,OK,73446,MARSHALL,Andy Gower,agower@madillok.com,35.482773,-97.502978
MANGUM,EDISON ES,28-I001,105,329,23,PK-04,(580) 782-2703,201 West Madison St,Mangum,OK,73554,GREER,Roger Ford,rford@mangum.k12.ok.us,37.921282,-95.407138
MANGUM,MANGUM MS,28-I001,510,233,26,05-08,(580) 782-5912,401 North Oklahoma Ave,Mangum,OK,73554,GREER,Barbara Gahagan,barbara.gahagan@mangum.k12.ok.us,35.586509,-97.507441
MANGUM,MANGUM HS,28-I001,705,190,28,09-12,(580) 782-3343,301 North Oklahoma Ave,Mangum,OK,73554,GREER,Travis Reese,treese@mangum.k12.ok.us,35.50023,-97.510196
MANNFORD,MANNFORD LOWER ES,19-I003,105,344,29,01-03,(918) 865-4334,136 Evans Ave,Mannford,OK,74044,CREEK,Joshua Pierce,piercej@mannford.k12.ok.us,35.635807,-97.517893
MANNFORD,MANNFORD UPPER ES,19-I003,110,221,19,04-05,(918) 865-3092,136 Evans Ave,Mannford,OK,74044,CREEK,James Ryan Norman,normanr@mannford.k12.ok.us,35.635807,-97.517893
MANNFORD,MANNFORD EC CTR,19-I003,115,199,15,PK-KG,(918) 865-4062,136 Evans Ave,Mannford,OK,74044,CREEK,Brenda Dorsey,dorseyb@mannford.k12.ok.us,35.635807,-97.517893
MANNFORD,MANNFORD MS,19-I003,500,359,28,06-08,(918) 865-4680,136 Evans Ave,Mannford,OK,74044,CREEK,Steve Anderson,andersons@mannford.k12.ok.us,35.635807,-97.517893
MANNFORD,MANNFORD HS,19-I003,705,499,46,09-12,(918) 865-3841,136 Evans Ave,Mannford,OK,74044,CREEK,Tim Wright,wrightt@mannford.k12.ok.us,35.635807,-97.517893
MAPLE,MAPLE PUBLIC SCHOOL,09-C162,105,145,17,PK-08,(405) 262-5647,904 South Maple Road,Calumet,OK,73014,CANADIAN,Shana Thiel,sthiel@maple.k12.ok.us,35.396254,-97.531505
MARYETTA,MARYETTA PUBLIC SCHOOL,01-C022,105,681,65,PK-08,(918) 696-2285,"Rural Route 6, Box 2840",Stilwell,OK,74960,ADAIR,Rhonda Brown,rbrown@maryetta.k12.ok.us,35.46454,-97.565142
MASON,MASON ES,54-I002,105,200,17,PK-08,(918) 623-2218,374006 E. 1000 Road,Mason,OK,74859,OKFUSKEE,Richard Williams,rwilliams@mason.k12.ok.us,35.477142,-97.500546
MASON,MASON HS,54-I002,705,94,11,09-12,(918) 623-0107,374006 E. 1000 Road,Mason,OK,74859,OKFUSKEE,Eddie Weaver,eweaver@mason.k12.ok.us,35.477142,-97.500546
MAYSVILLE,MAYSVILLE ES,25-I007,105,251,16,PK-08,(888) 806-5440,600 First St,Maysville,OK,73057,GARVIN,Jeanna Bearden,jbearden@maysville.k12.ok.us,37.10896,-97.148508
MAYSVILLE,MAYSVILLE HS,25-I007,715,100,15,09-12,(888) 806-5330,600 First St,Maysville,OK,73057,GARVIN,Shelly Hildebrand-Beach,shildebrand@maysville.k12.ok.us,37.10896,-97.148508
MCCORD,MCCORD PUBLIC SCHOOL,57-C077,105,285,20,PK-06,(580) 765-8806,977 South Mccord Road,Ponca City,OK,74604,OSAGE,Boyd Braden,bbraden@mccord.k12.ok.us,35.335909,-97.508282
MEDFORD,MEDFORD ES,27-I054,105,197,25,PK-08,(580) 395-2392,301 North Main St,Medford,OK,73759,GRANT,Carolyn Labrue,clabrue@medford.k12.ok.us,36.807335,-97.73721
MEDFORD,MEDFORD HS,27-I054,705,81,17,09-12,(580) 395-2392,301 North Main St,Medford,OK,73759,GRANT,Micheal Thompson,mthompson@medford.k12.ok.us,36.807335,-97.73721
MEEKER,MEEKER ES,41-I095,105,372,30,PK-05,(405) 788-4540,400 South Culver St,Meeker,OK,74855,LINCOLN,Mike Mcafee,mmcafee@meeker.k12.ok.us,35.482062,-97.505516
MEEKER,MEEKER MS,41-I095,505,166,33,06-08,(405) 788-4540,214 East Carl Hubbell Blvd,Meeker,OK,74855,LINCOLN,"Virgil Fowler, Dean Of Students",vfowler@meeker.k12.ok.us,35.48324,-97.508021
MEEKER,MEEKER HS,41-I095,705,317,34,09-12,(405) 788-4540,214 East Carl Hubbell Blvd,Meeker,OK,74855,LINCOLN,Mike Hedge,mhedge@meeker.k12.ok.us,35.48324,-97.508021
MERRITT,MERRITT ES,05-I002,105,628,51,PK-08,(580) 225-5460,19693 East 1130 Road,Elk City,OK,73644,BECKHAM,Tawn Rundle,rundlet@merritt.k12.ok.us,35.479048,-97.504034
MERRITT,MERRITT HS,05-I002,705,161,25,09-12,(580) 225-5460,19693 East 1130 Road,Elk City,OK,73644,BECKHAM,Don Bradshaw,bradshawd@merritt.k12.ok.us,35.479048,-97.504034
MIAMI,ROCKDALE ES,58-I023,115,221,16,KG-03,(918) 542-6697,2116 Rockdale Blvd,Miami,OK,74354,OTTAWA,Andrea Berry,aberry@mpswardogs.com,35.490139,-97.486423
MIAMI,ROOSEVELT ES,58-I023,120,245,19,KG-03,(918) 542-5576,129 G St Northeast,Miami,OK,74354,OTTAWA,Melissa Bekemeier,mbekemeier@mpswardogs.com,34.176422,-97.135959
MIAMI,WASHINGTON ES,58-I023,130,208,17,KG-03,(918) 542-3394,1930 B St Northeast,Miami,OK,74354,OTTAWA,Melissa Turner,mturner@mpswardogs.com,35.489419,-97.618603
MIAMI,WILSON ES,58-I023,135,282,18,PK-03,(918) 542-8419,308 G St Northwest,Miami,OK,74354,OTTAWA,Courtney Murphy,cmurphy@mpswardogs.com,35.484282,-97.506971
MIAMI,NICHOLS UPPER ES,58-I023,140,324,23,04-05,(918) 542-3309,504 14th Nw,Miami,OK,74354,OTTAWA,Keni Iverson,kiverson@mpswardogs.com,35.48391,-97.509047
MIAMI,WILL ROGERS MS,58-I023,505,477,52,06-08,(918) 542-5588,504 Goodrich Blvd,Miami,OK,74354,OTTAWA,Justin Chase,jchase@mpswardogs.com,35.485275,-97.503975
MIAMI,MIAMI HS,58-I023,705,630,61,09-12,(918) 542-4421,2000 East Central Ave,Miami,OK,74354,OTTAWA,Lisa Munson,lmunson@mpswardogs.com,36.872617,-94.880376
MIDDLEBERG,MIDDLEBERG PUBLIC SCHOOL,26-C096,105,202,15,PK-08,(405) 485-3612,2130 County Road 1317,Blanchard,OK,73010,GRADY,Randy Hughes,rhughes@middleberg.k12.ok.us,35.490412,-97.157821
MIDWEST CITY-DEL CITY,BARNES ES,55-I052,105,389,29,PK-05,(405) 739-1651,10551 Se 59th St,Oklahoma City,OK,73150,OKLAHOMA,Vicki Vetter,vvetter@mid-del.net,35.407227,-97.341318
MIDWEST CITY-DEL CITY,CLEVELAND BAILEY ES,55-I052,110,338,25,PK-05,(405) 739-1656,3301 Sunvalley Drive,Midwest City,OK,73110,OKLAHOMA,Linda Laakman,llaakman@mid-del.net,35.444316,-97.419866
MIDWEST CITY-DEL CITY,COUNTRY ESTATES ES,55-I052,115,413,31,PK-05,(405) 739-1661,1609 Felix Place,Oklahoma City,OK,73110,OKLAHOMA,Brooke Guthrie,bguthrie@mid-del.net,35.449184,-97.422136
MIDWEST CITY-DEL CITY,DEL CITY ES,55-I052,120,652,50,PK-05,(405) 671-8640,2400 Epperly Drive,Del City,OK,73115,OKLAHOMA,Ruth Kizer,rkizer@mid-del.net,35.411159,-97.435487
MIDWEST CITY-DEL CITY,EPPERLY HEIGHTS ES,55-I052,130,693,48,PK-05,(405) 671-8650,3805 Del Road,Del City,OK,73115,OKLAHOMA,Kevin Hill,kchill@mid-del.net,35.427225,-97.435275
MIDWEST CITY-DEL CITY,PLEASANT HILL EC CTR,55-I052,135,186,18,PK-05,(405) 427-6551,4346 Ne 36th St,Oklahoma City,OK,73121,OKLAHOMA,Tamara Roberson,troberson@mid-del.net,35.511448,-97.455672
MIDWEST CITY-DEL CITY,HIGHLAND PARK ES,55-I052,140,527,43,PK-05,(405) 671-8660,5301 S Dimple Ave,Oklahoma City,OK,73135,OKLAHOMA,Donna Cloud,dcloud@mid-del.net,35.52504,-97.339787
MIDWEST CITY-DEL CITY,RIDGECREST ES,55-I052,145,368,28,PK-05,(405) 739-1671,137 W Ridgewood Drive,Midwest City,OK,73110,OKLAHOMA,Mike Stiglets,mstiglets@mid-del.net,35.470217,-97.399423
MIDWEST CITY-DEL CITY,SOLDIER CREEK ES,55-I052,150,761,51,PK-05,(405) 739-1676,9021 Se 15th St,Midwest City,OK,73130,OKLAHOMA,Jeff Holland,jholland@mid-del.net,35.450445,-97.36964
MIDWEST CITY-DEL CITY,STEED ES,55-I052,160,425,35,PK-05,(405) 739-1686,2118 Flannery Drive,Midwest City,OK,73110,OKLAHOMA,Patrice Tucker,ptucker@mid-del.net,35.458313,-97.383171
MIDWEST CITY-DEL CITY,TINKER ES,55-I052,165,492,37,PK-05,(405) 739-1630,4500 Tinker Road,Oklahoma City,OK,73135,OKLAHOMA,Wendy Eaton,weaton@mid-del.net,35.417173,-97.418453
MIDWEST CITY-DEL CITY,TOWNSEND ES,55-I052,170,448,38,PK-05,(405) 671-8680,4000 Epperly Drive,Del City,OK,73115,OKLAHOMA,Michael Becker,mbecker@mid-del.net,35.411159,-97.435487
MIDWEST CITY-DEL CITY,PARKVIEW ES,55-I052,185,708,45,PK-05,(405) 671-8670,5701 Mackelman Drive,Oklahoma City,OK,73135,OKLAHOMA,"Jon ""Bryan"" Kalsu",jkalsu@mid-del.net,35.416327,-97.430147
MIDWEST CITY-DEL CITY,SCHWARTZ ES,55-I052,190,348,24,PK-05,(405) 794-4703,12001 Se 104th St,Oklahoma City,OK,73165,OKLAHOMA,Rondall Jones,rjones@mid-del.net,35.361153,-97.305131
MIDWEST CITY-DEL CITY,MIDWEST CITY ES,55-I052,195,899,63,PK-05,(405) 582-7017,2211 S. Midwest Blvd.,Midwest City,OK,73110,OKLAHOMA,,,35.451136,-97.388863
MIDWEST CITY-DEL CITY,CARL ALBERT MS,55-I052,505,851,60,06-08,(405) 739-1761,2515 S Post Road,Oklahoma City,OK,73130,OKLAHOMA,Cindy Anderson,canderson@mid-del.net,35.427627,-97.351525
MIDWEST CITY-DEL CITY,DEL CREST MS,55-I052,510,548,49,06-08,(405) 671-8615,4731 Judy Drive,Del City,OK,73115,OKLAHOMA,"Brian ""Scott"" Perry",bperry@mid-del.net,35.456704,-97.43032
MIDWEST CITY-DEL CITY,JARMAN MS,55-I052,515,571,49,06-08,(405) 739-1771,5 W Macarthur Drive,Midwest City,OK,73110,OKLAHOMA,Dannette Hall,dhall@mid-del.net,35.441779,-97.404032
MIDWEST CITY-DEL CITY,KERR MS,55-I052,520,585,49,06-08,(405) 671-8625,2300 Linda Lane,Del City,OK,73115,OKLAHOMA,Robert Cherry,rcherry@mid-del.net,32.692961,-97.299297
MIDWEST CITY-DEL CITY,MONRONEY MS,55-I052,525,568,51,06-08,(405) 739-1786,7400 E Reno Ave,Midwest City,OK,73110,OKLAHOMA,Mark Flies,mflies@mid-del.net,35.464581,-97.511758
MIDWEST CITY-DEL CITY,CARL ALBERT HS,55-I052,705,1074,76,09-12,(405) 739-1726,2009 S Post Road,Oklahoma City,OK,73130,OKLAHOMA,Kristin Goggans,kgoggans@mid-del.net,35.427627,-97.351525
MIDWEST CITY-DEL CITY,DEL CITY HS,55-I052,710,1324,101,09-12,(405) 677-5777,1900 S Sunnylane Road,Del City,OK,73115,OKLAHOMA,Gina Hill,ghill@mid-del.net,35.421116,-97.440948
MIDWEST CITY-DEL CITY,MIDWEST CITY HS,55-I052,715,1406,105,09-12,(405) 739-1741,213 E Elm St,Midwest City,OK,73110,OKLAHOMA,Chris Reynolds,creynolds@mid-del.net,35.453091,-97.399595
MILLWOOD,MILLWOOD ES,55-I037,105,658,52,PK-08,(405) 475-1004,6710 N. Martin Luther King Ave,Oklahoma City,OK,73111,OKLAHOMA,Susan Baldwin,sbaldwin@millwoodps.org,35.510364,-97.477998
MILLWOOD,MILLWOOD HS,55-I037,705,268,22,09-12,(405) 478-0504,6718 N. Martin Luther King Ave,Oklahoma City,OK,73111,OKLAHOMA,Michaell Brown,mbrown@millwoodps.org,35.510364,-97.477998
MOORE,CENTRAL ES,14-I002,103,698,44,PK-06,(405) 735-4140,123 Northwest Second St,Moore,OK,73160,CLEVELAND,Becky Jackson,beckyjackson@mooreschools.com,35.317314,-97.488755
MOORE,FAIRVIEW ES,14-I002,107,718,43,PK-06,(405) 735-4170,2431 Southwest 89th St,Oklahoma City,OK,73159,CLEVELAND,Jennifer Mcmanus,jennifermcmanus@mooreschools.com,35.37643,-97.545951
MOORE,KELLEY ES,14-I002,108,378,28,PK-06,(405) 735-4400,1900 North Janeway Ave,Moore,OK,73160,CLEVELAND,Dena Taylor,denataylor@mooreschools.com,35.340072,-97.498231
MOORE,NORTHMOOR ES,14-I002,109,398,26,PK-06,(405) 735-4420,211 Northeast 19Th,Moore,OK,73160,CLEVELAND,Vernona Decarlo,vernonadecarlo@mooreschools.com,35.316996,-97.492143
MOORE,SOUTHGATE-RIPPETOE ES,14-I002,110,558,35,PK-06,(405) 735-4480,500 North Norman Ave,Moore,OK,73160,CLEVELAND,Neal Johnson,nealjohnson@mooreschools.com,35.341187,-97.505552
MOORE,PLAZA TOWERS ES,14-I002,112,436,31,PK-06,(405) 735-4430,852 Southwest 11th St,Moore,OK,73160,CLEVELAND,Patrick Chase,patrickchase@mooreschools.com,35.30176,-97.490946
MOORE,SKY RANCH ES,14-I002,113,683,41,PK-06,(405) 735-4460,9501 South Western Ave,Oklahoma City,OK,73139,CLEVELAND,Debra Hendrix,debrahendrix@mooreschools.com,35.393438,-97.531154
MOORE,KINGSGATE ES,14-I002,117,516,33,PK-06,(405) 735-4410,1400 Kingsgate Road,Oklahoma City,OK,73159,CLEVELAND,Karie Hill,kariehill@mooreschools.com,35.370413,-97.541469
MOORE,HOUCHIN ES,14-I002,120,558,38,PK-06,(405) 735-4190,3200 Webster St,Moore,OK,73160,CLEVELAND,Jennifer Mankins,jennifermankins@mooreschools.com,35.316996,-97.492143
MOORE,WINDING CREEK ES,14-I002,125,675,45,KG-06,(405) 735-4510,1401 Northeast 12th St,Moore,OK,73160,CLEVELAND,Christi Olstad,christiolstad@mooreschools.com,35.316996,-97.492143
MOORE,SANTA FE ES,14-I002,130,512,37,PK-06,(405) 735-4450,501 North Santa Fe Ave,Moore,OK,73160,CLEVELAND,Charla Uhles,charlauhles@mooreschools.com,35.521816,-97.51168
MOORE,APPLE CREEK ES,14-I002,135,557,35,PK-06,(405) 735-4100,1101 Southeast 14th St,Moore,OK,73160,CLEVELAND,Pamela Huston,pamhuston@mooreschools.com,35.30176,-97.490946
MOORE,RED OAK ES,14-I002,140,418,29,PK-06,(405) 735-4440,11224 South Pennsylvania Ave,Oklahoma City,OK,73170,CLEVELAND,Amber Balderrama,amberbalderrama@mooreschools.com,35.381527,-97.520582
MOORE,BRIARWOOD ES,14-I002,145,592,34,PK-06,(405) 735-4110,14901 South Hudson Ave,Oklahoma City,OK,73170,CLEVELAND,Kyle Harrison,kyleharrison@mooreschools.com,35.381527,-97.520582
MOORE,FISHER ES,14-I002,155,477,32,PK-06,(405) 735-4180,11800 Southwood Drive,Oklahoma City,OK,73170,CLEVELAND,Kathy Massey,kathymassey@mooreschools.com,35.381527,-97.520582
MOORE,SOONER ES,14-I002,160,419,27,PK-06,(405) 735-4470,5420 Southeast 89th St,Oklahoma City,OK,73135,CLEVELAND,Kevin Mcelroy,kevinmcelroy@mooreschools.com,35.388379,-97.424267
MOORE,EARLYWINE ES,14-I002,165,494,33,PK-06,(405) 735-4150,12800 South May Ave,Oklahoma City,OK,73170,CLEVELAND,Ben Randall,benrandall@mooreschools.com,35.381527,-97.520582
MOORE,BROADMOORE ES,14-I002,170,641,41,PK-06,(405) 735-4120,3401 South Broadway St,Moore,OK,73160,CLEVELAND,Toni Boykin,toniboykin@mooreschools.com,35.30176,-97.490946
MOORE,EASTLAKE ES,14-I002,175,441,30,PK-06,(405) 735-4160,1301 Southwest 134th St,Oklahoma City,OK,73170,CLEVELAND,Cynthia Zink,cynthiazink@mooreschools.com,35.334729,-97.54988
